"","stop_id","stop_name","stop_lat","stop_lon","zip"
"1","000008012713","Rangsdorf, Bahnhof",52.294125,13.431112,15834
"2","000008010205","Leipzig, Hauptbahnhof",51.344817,12.381321,4105
"3","000008010327","Senftenberg, Bahnhof",51.52679,14.003977,1968
"4","000008012393","Mühlanger, Bahnhof",51.855704,12.748198,6895
"5","000008011756","Großräschen, Bahnhof",51.591486,14.014993,1983
"6","000008011471","Eisenhüttenstadt, Bahnhof",52.147961,14.65872,15890
"7","000008011238","Borkheide, Bahnhof",52.23115,12.854964,14822
"8","000008012666","S Potsdam Hauptbahnhof",52.390935,13.067187,14467
"9","000008012428","Netzeband, Bahnhof",52.995291,12.628685,16818
"10","000008010279","Potsdam, Pirschheide Bhf",52.373909,13.010836,14471
"11","000008010318","Schönebeck(Elbe)",52.018794,11.733157,39218
"12","000008010036","S+U Lichtenberg Bhf (Berlin)",52.510754,13.498228,10317
"13","000008010031","Bad Belzig, Bahnhof",52.136396,12.595026,14806
"14","000008012381","Möser, Bahnhof",52.219128,11.784784,39291
"15","000008011740","Großbeeren, Bahnhof",52.350025,13.284362,14513
"16","000008011749","Großenhain, Cottbuser Bahnhof",51.291668,13.523994,1558
"17","000008011460","Eichstedt (Altmark), Bahnhof",52.674806,11.854882,39596
"18","000008012656","Pönitz (bei Leipzig), Bahnhof",51.408476,12.514348,4425
"19","000008012650","Plessa, Bahnhof",51.470851,13.616893,4928
"20","000008011188","Biesenthal, Bahnhof",52.755706,13.674484,16359
"21","000008012413","Nassenheide, Bahnhof",52.817405,13.238075,16775
"22","000008012418","Nechlin, Bahnhof",53.442752,13.903114,17309
"23","000008010268","Pasewalk, Bahnhof",53.51501,13.988811,17309
"24","000008010302","Roßlau, Bahnhof",51.883983,12.236938,6862
"25","000008010308","Ruhland, Bahnhof",51.455449,13.869697,1945
"26","000008012096","Kremmen, Bahnhof",52.753402,13.039681,16766
"27","000008011572","Fretzdorf, Bahnhof",53.069123,12.540218,16909
"28","000008011210","Blönsdorf, Bahnhof",51.955514,12.895806,14913
"29","000008011334","Dabendorf, Bahnhof",52.237264,13.437435,15806
"30","000008010255","S Ostbahnhof (Berlin)",52.510001,13.435747,10997
"31","000008010250","Neustrelitz, Hauptbahnhof",53.359309,13.074598,17235
"32","000008010376","Wiesenburg, Bahnhof",52.098874,12.429625,14827
"33","000008010377","Potsdam, Park Sanssouci Bhf",52.394052,13.015165,14471
"34","000008010373","Werder (Havel), Bahnhof",52.392678,12.926129,14542
"35","000008010378","Wilhelmshorst, Bahnhof",52.331542,13.067384,14552
"36","000008010018","Bad Kleinen, Bahnhof",53.766651,11.465788,23996
"37","000008012084","Kolkwitz, Süd Bhf",51.746846,14.24156,3099
"38","000008012083","Kolkwitz, Bahnhof",51.757601,14.250855,3099
"39","000008010139","Greifswald, Bahnhof",54.092955,13.370426,17489
"40","000008012089","Brieskow-Finkenheerd, Kraftwerk Finkenheerd Bhf",52.263269,14.575663,15295
"41","000008011563","Frauenhain, Bahnhof",51.384798,13.502909,1609
"42","000008011322","Coswig (Anhalt), Bahnhof",51.887912,12.45808,6869
"43","000008012479","Neuzelle, Bahnhof",52.099151,14.648603,15898
"44","000008010246","Neuruppin, West Bhf",52.926596,12.794441,16816
"45","000008011818","Hangelsberg, Bahnhof",52.400032,13.921515,15537
"46","000008012233","Linda (Elster), Bahnhof",51.852698,13.085269,6917
"47","000008010004","Angermünde, Bahnhof",53.015587,13.996753,16278
"48","000008010123","Genthin, Bahnhof",52.403234,12.156539,39307
"49","000008010120","Fürstenwalde, Bahnhof",52.367029,14.059618,15517
"50","000008081688","Cottbus, Willmersdorf Nord Bhf",51.816465,14.385618,3053
"51","000008010121","Geestgottberg, Bahnhof",52.956329,11.73693,39615
"52","000008012195","Leipzig-Thekla, Bahnhof",51.371673,12.430845,4349
"53","000008012190","Leipzig-Heiterblick, Bhf",51.369004,12.459037,4347
"54","000005100057","Szczecin, Glowny",53.418155,14.549204,NA
"55","000008011559","Frankfurt (Oder), Rosengarten Bhf",52.338063,14.471443,15234
"56","000008011271","Brück, Bahnhof",52.186811,12.758441,14822
"57","000008011314","Chorin, Bahnhof",52.903551,13.869724,16230
"58","000008011311","Casekow, Bahnhof",53.213416,14.207325,16306
"59","000008011319","Coschen, Bahnhof",52.019868,14.718168,15898
"60","000008080170","Ludwigsfelde, Birkengrund Bhf",52.315694,13.271782,14974
"61","000008011805","Halbe, Bahnhof",52.10872,13.70186,15757
"62","000008012469","Neupetershain, Bahnhof",51.60634,14.16123,3103
"63","000008010357","Guben, Bahnhof",51.957654,14.707037,3172
"64","000008010353","Luckau-Uckro, Bahnhof",51.852255,13.608109,15926
"65","000008010351","Torgau, Bahnhof",51.562779,12.991404,4860
"66","000008012226","Liebenthal (OPR), Bahnhof",53.150875,12.394149,16909
"67","000008010077","Dessau, Hauptbahnhof",51.838925,12.234147,6844
"68","000008010072","Coswig (bei Dresden), Bahnhof",51.122816,13.579336,1640
"69","000008010073","Cottbus, Hauptbahnhof",51.750373,14.32517,3046
"70","000008010079","Doberlug-Kirchhain, Bahnhof",51.620951,13.563712,3253
"71","000008010113","Frankfurt (Oder), Bahnhof",52.337218,14.546913,15232
"72","000008010111","Forst, Bahnhof",51.739249,14.63764,3149
"73","000008011542","Finsterwalde, Bahnhof",51.637,13.710446,3238
"74","000008011540","Brieskow-Finkenheerd, Finkenheerd Bhf",52.249263,14.5687,15295
"75","000008011541","Falkensee, Finkenkrug Bhf",52.569498,13.051784,14612
"76","000008013418","Zörnigall, Bahnhof",51.882925,12.731527,6895
"77","000008012831","Sachsenhausen, Bahnhof",52.771155,13.251239,16515
"78","000005100145","Szczecin, Gumience",53.39779,14.495159,NA
"79","000008011269","Briesen (Mark), Bahnhof",52.346495,14.281342,15518
"80","000008011308","Caputh-Geltow, Bahnhof",52.350345,12.984447,14548
"81","000008011694","Greifswald, Bahnhof Süd",54.076114,13.397266,17489
"82","000008080040","Berlin, Albrechtshof Bhf",52.549447,13.128968,14612
"83","000008011691","Gransee, Bahnhof",53.001094,13.166567,16775
"84","000008013093","Taucha (bei Leipzig), Bahnhof",51.379503,12.485713,4425
"85","000008013090","Tantow, Bahnhof",53.270755,14.350222,16307
"86","000008012458","Neuhof (bei Zossen), Bahnhof",52.139981,13.479451,NA
"87","000008012215","Leuthen, Bahnhof",51.695043,14.256051,3116
"88","000008010064","Britz, Bahnhof",52.872932,13.820549,16230
"89","000008010060","Brandenburg, Hauptbahnhof",52.400794,12.566036,14776
"90","000008010069","Calau, Bahnhof",51.738557,13.980124,3205
"91","000008010103","Falkenberg/E., Bahnhof",51.583938,13.246458,4895
"92","000008010100","Elsterwerda-Biehla, Bahnhof",51.472333,13.519123,4910
"93","000008010109","S Flughafen Berlin-Schönefeld Bhf",52.390792,13.513522,12529
"94","000008013406","Ziltendorf, Bahnhof",52.199433,14.616207,15295
"95","000008013402","Zielitz, Bahnhof",52.297052,11.68038,39326
"96","000008011250","Brand, Tropical Islands Bhf",52.029922,13.721582,15757
"97","000008011016","Altdöbern, Bahnhof",51.652811,14.009201,3229
"98","000008011131","Beilrode, Bahnhof",51.571015,13.064928,4886
"99","000008013083","Tangerhütte, Bahnhof",52.436171,11.81189,39517
"100","000008012445","Teichland, Bahnhof",51.818652,14.423752,3185
"101","000008011867","Herzberg (Elster), Bahnhof",51.679667,13.203317,4916
"102","000008012565","Ortrand, Bahnhof",51.37395,13.764527,1990
"103","000008012568","Osterburg, Bahnhof",52.787728,11.760416,39606
"104","000008011901","S Hohenschönhausen Bhf (Berlin)",52.566549,13.513698,13057
"105","000008011909","Holzdorf, Bahnhof",51.780271,13.114162,6926
"106","000008010053","S Blankenfelde (TF) Bhf",52.337628,13.415908,15827
"107","000008012322","Medewitz, Bahnhof",52.060665,12.392208,14827
"108","000008012329","Melchow, Bahnhof",52.775174,13.694631,16359
"109","000008010177","Hoyerswerda, Bahnhof",51.432809,14.231523,2977
"110","000008010175","Neuruppin, Rheinsberger Tor Bhf",52.929073,12.810993,16816
"111","000008010171","Hosena, Bahnhof",51.454473,14.013742,1996
"112","000008010179","Jatznick, Bahnhof",53.603073,13.93765,17309
"113","000008013477","S Erkner Bhf",52.428396,13.752249,15537
"114","000008013472","Brieselang, Bahnhof",52.582598,13.001286,14656
"115","000008013470","S Bernau Bhf",52.676233,13.593034,16321
"116","000008012816","Rückersdorf, Bahnhof",51.567823,13.574231,3238
"117","000008013479","Falkensee, Bahnhof",52.5596,13.089887,14612
"118","000008012819","Rüdnitz, Bahnhof",52.717703,13.636219,16321
"119","000008012934","Schwante, Bahnhof",52.7348,13.091574,16727
"120","000008013238","Warnitz, Bahnhof",53.183929,13.877281,17291
"121","000008012552","Oehna (bei Niedergörsdorf), Bahnhof",51.932168,13.048686,14913
"122","000008010047","Biederitz, Bahnhof",52.153082,11.71687,39175
"123","000008010041","S Schöneweide Bhf (Berlin)",52.454611,13.510149,12487
"124","000008012315","Potsdam, Marquardt Bhf",52.458828,12.97167,14476
"125","000008010161","Eilenburg, Bahnhof Ost",51.463499,12.668029,4838
"126","000008013467","Beelitz-Heilstätten, Bahnhof",52.261969,12.926141,14547
"127","000008012923","Schönwalde (Spreewald), Bahnhof",51.991496,13.776715,15910
"128","000008011355","Demker, Bahnhof",52.517102,11.854104,39517
"129","000008013222","Walsleben, Bahnhof",52.946543,12.680112,16818
"130","000008011078","Bad Liebenwerda, Bahnhof",51.518301,13.402642,4924
"131","000008011116","Baruth, Bahnhof",52.058085,13.511824,15837
"132","000008013185","Velten, Bahnhof",52.685019,13.171933,16727
"133","000008013183","Vehlefanz, Bahnhof",52.722041,13.11547,16727
"134","000008011848","Heiligengrabe, Bahnhof",53.150035,12.343382,16909
"135","000008013188","Vetschau, Bahnhof",51.789471,14.081529,3226
"136","000008011960","Jessen (Elster), Bahnhof",51.792714,12.95448,6917
"137","000008012549","Oderin, Bahnhof",52.075217,13.726914,15757
"138","000008012260","Luckenwalde, Bahnhof",52.090609,13.16116,14943
"139","000008010154","Güterglück, Bahnhof",51.993474,11.984765,39264
"140","000008010153","Güstrow, Bahnhof",53.800373,12.172522,18273
"141","000008010151","Güsen, Bahnhof",52.3343,11.97654,39317
"142","000008012021","Klein Bünzow, Bahnhof",53.92366,13.622435,17390
"143","000008011344","Dannenwalde (bei Gransee), Bahnhof",53.081391,13.180737,16775
"144","000008011340","Dahlewitz, Bahnhof",52.327032,13.419632,15827
"145","000008012918","Schönow (UM), Bahnhof",53.184917,14.153873,16306
"146","000008013210","Walddrehna, Bahnhof",51.772807,13.617134,15926
"147","000008080710","Hohen Neuendorf, West Bhf",52.672356,13.271343,16540
"148","000008011100","Baitz, Bahnhof",52.164364,12.684519,14822
"149","000008011952","Jeber-Bergfrieden, Bahnhof",51.984667,12.349608,6868
"150","000008011959","Jesewitz (bei Leipzig), Bahnhof",51.419788,12.545009,4838
"151","000008012257","Lubolz, Bahnhof",51.962401,13.82131,15907
"152","000008012371","Mockrehna, Bahnhof",51.505547,12.819528,4862
"153","000008012681","Prösen, Ost Bhf",51.425144,13.50048,4932
"154","000008012011","Brandenburg, Kirchmöser Bhf",52.375453,12.421661,14774
"155","000008013444","Dresden, Bahnhof Mitte",51.056156,13.72387,1067
"156","000008081586","Seegefeld, Bahnhof",52.552757,13.115827,14612
"157","000008012903","Schönborn, Bahnhof",51.601989,13.468036,3253
"158","000008011173","Bestensee, Bahnhof",52.242283,13.634536,15741
"159","000008011179","Beutersitz, Bahnhof",51.590096,13.360627,4924
"160","000008011486","Elster (Elbe), Bahnhof",51.832543,12.827152,6895
"161","000008011944","Jänschwalde, Bahnhof",51.866457,14.500611,3197
"162","000008011945","Jänschwalde, Ost Bhf",51.877718,14.54099,3197
"163","000008011940","Jacobsdorf (Mark), Bahnhof",52.332674,14.355673,15236
"164","000008012006","Kerkwitz, Bahnhof",51.909526,14.62722,NA
"165","000008010287","Pritzwalk, Bahnhof",53.145967,12.184525,16928
"166","000008010284","Priemerburg",53.795979,12.223022,18273
"167","000008010285","Priestewitz, Bahnhof",51.250714,13.508716,1561
"168","000008010282","Prenzlau, Bahnhof",53.321614,13.866558,17291
"169","000008010280","Potsdam, Charlottenhof Bhf",52.392828,13.035788,14471
"170","000008013275","Lutherstadt Wittenberg, Bhf Labetz",51.871219,12.695082,6886
"171","000008013272","Wellmitz, Bahnhof",52.064704,14.714853,15898
"172","000008011630","Gerwisch, Bahnhof",52.177297,11.741685,39175
"173","000008011044","Anklam, Bahnhof",53.856168,13.701654,17389
"174","000008011042","Angern-Rogätz, Bahnhof",52.339029,11.759805,39326
"175","000008013313","Wilmersdorf (bei Angermünde), Bahnhof",53.111412,13.893207,16278
"176","000008011048","Annaburg, Bhf",51.728678,13.03275,6925
"177","000008012358","Miltzow, Bahnhof",54.199259,13.201011,18519
"178","000008010396","Züssow, Bahnhof",53.973881,13.548192,17495
"179","000008012967","Seehausen (Altmark), Bahnhof",52.885488,11.743531,39615
"180","000008010395","Zossen, Bahnhof",52.218899,13.439169,15806
"181","000008012968","Seehausen (UM), Bahnhof",53.221029,13.884549,17291
"182","000008010399","Fürstenberg (Havel), Bahnhof",53.186497,13.139805,16798
"183","000008013305","Wiesenau, Bahnhof",52.231286,14.583823,15295
"184","000008011154","Berkenbrück (LOS), Bahnhof",52.357185,14.165226,15518
"185","000008012341","Cottbus, Merzdorf Bhf",51.768927,14.366592,3044
"186","000008012957","Caputh, Schwielowsee Bhf",52.341039,12.980586,14548
"187","000008010384","Wittstock (Dosse), Bahnhof",53.160824,12.478766,16909
"188","000008010382","Wittenberge, Bahnhof",53.002077,11.762899,19322
"189","000008013258","Weisen, Bahnhof",53.025685,11.788002,19322
"190","000008013376","Zeesen, Bahnhof",52.264919,13.634857,15711
"191","000008013371","Zahna, Bahnhof",51.918892,12.77935,6895
"192","000008011730","Groß Pankow, Bahnhof",53.123008,12.047107,16928
"193","000008013137","Trebbin, Bahnhof",52.216898,13.229888,14959
"194","000008011294","Burg (bei Magdeburg), Bahnhof",52.274892,11.841726,39288
"195","000008011290","Bülzig, Bahnhof",51.894872,12.752553,6895
"196","000008080190","S Birkenwerder Bhf",52.687871,13.288417,16547
"197","000008012175","Lauta, Bahnhof",51.447248,14.09311,2991
"198","000008012487","Niedergörsdorf, Bahnhof",51.967879,12.978498,14913
"199","000008012944","Schwedt, Mitte Bhf",53.068342,14.271658,16303
"200","000008012942","Schwarzkollm, Bahnhof",51.443318,14.133568,2977
"201","000008012943","Schwedt, Bahnhof",53.063044,14.290626,16303
"202","000008012941","Schwarzheide, Ost Bhf",51.473778,13.891002,1987
"203","000008010095","Eilenburg, Bahnhof",51.452006,12.636845,4838
"204","000008010093","Eberswalde, Hauptbahnhof",52.833665,13.797032,16225
"205","000008010099","Elsterwerda, Bahnhof",51.459716,13.517418,4910
"206","000008013365","Wusterwitz, Bahnhof",52.385278,12.372994,14789
"207","000008011725","Groß Kreutz, Bahnhof",52.411002,12.776672,14550
"208","000008011723","Groß Kiesow, Bahnhof",54.01372,13.480622,17495
"209","000008013368","Zabeltitz, Bahnhof",51.349875,13.515489,1561
"210","000008013123","Thyrow, Bahnhof",52.247121,13.259936,14959
"211","000008012636","Pillgram, Bahnhof",52.336903,14.397962,15236
"212","000008012637","Pinnow (UM), Bahnhof",53.065581,14.089945,16278
"213","000008012040","Klieken, Bhf",51.894518,12.371757,6869
"214","000008010406","S+U Zoologischer Garten Bhf (Berlin)",52.506921,13.332707,10719
"215","000008010404","S Spandau Bhf (Berlin)",52.534798,13.197477,13581
"216","000008010405","S Wannsee Bhf (Berlin)",52.421457,13.179099,14109
"217","000008010403","S Charlottenburg Bhf (Berlin)",52.504805,13.303843,14057
"218","000008012169","Lauchhammer West, Bahnhof",51.474401,13.74397,1979
"219","000008011894","Hohenleipisch, Bahnhof",51.492884,13.565128,4934
"220","000008010085","Dresden, Hauptbahnhof",51.040723,13.732195,1069
"221","000008010089","Dresden, Bahnhof Neustadt",51.065282,13.738348,1097
"222","000008013352","Wüstenfelde, Bahnhof",54.230224,13.139527,18519
"223","000008013350","Wünsdorf-Waldstadt, Bahnhof",52.16557,13.467921,15806
"224","000008011430","Potsdam, Medienstadt Babelsberg Bhf",52.383023,13.122184,14480
"225","000008011438","Ducherow, Bahnhof",53.76618,13.796064,17398
"226","000008012627","Petershagen (UM), Bahnhof",53.240043,14.252641,16306
"227","000008012622","Perleberg, Bahnhof",53.071051,11.851784,19348
"228","000008012621","Peitz, Ost Bhf",51.844073,14.448949,3185
"229","000008010233","Michendorf, Bahnhof",52.316137,13.03101,14552
"230","000008010231","Meinsdorf (bei Roßlau), Bahnhof",51.903096,12.255825,6862
"231","000008010239","Nauen, Bahnhof",52.612335,12.885156,14641
"232","000008011667","Gollmitz, Bahnhof",51.704677,13.886832,3205
"233","000008011665","Goldbeck (bei Osterburg), Bahnhof",52.716191,11.858197,39596
"234","000008011662","Götz, Bahnhof",52.4112,12.725709,14550
"235","000008011668","Golßen, Bahnhof",51.974152,13.575069,15938
"236","000008013344","Wolmirstedt, Bahnhof",52.25045,11.635337,39326
"237","000008013345","Woltersdorf (Nuthe-Urstromtal), Bahnhof",52.116885,13.193933,14943
"238","000008010193","S Königs Wusterhausen Bhf",52.296719,13.631534,15711
"239","000008011703","Griebo, Bhf",51.880568,12.522963,6886
"240","000008013109","Groß Köris, Bahnhof",52.15926,13.650767,15746
"241","000008013492","Seddin (PM), Bahnhof",52.291781,12.984759,14554
"242","000008013493","Niesky",51.298736,14.831897,2906
"243","000008011387","Doberschütz, Bahnhof",51.49212,12.745249,4838
"244","000008012611","Passow, Bahnhof",53.148344,14.100766,16306
"245","000008012734","Rehfeld (EE), Bahnhof",51.579907,13.153918,4886
"246","000008012733","Potsdam, Rehbrücke Bhf",52.358818,13.098009,14558
"247","000008012145","Lampertswalde, Bahnhof",51.308502,13.680492,1561
"248","000008010226","Magdeburg-Neustadt, Bahnhof",52.148924,11.641805,39106
"249","000008010224","Magdeburg, Hauptbahnhof",52.130196,11.627439,39108
"250","000008010222","Lutherstadt Wittenberg, Hauptbahnhof",51.867536,12.661997,6886
"251","000008010220","Lübbenau, Bahnhof",51.862114,13.962173,3222
"252","000008012295","Mahlwinkel, Bahnhof",52.393498,11.788141,39326
"253","000008011776","Grüneberg, Bahnhof",52.868313,13.213804,16775
"254","000008010182","Jüterbog, Bahnhof",51.997928,13.055159,14913
"255","000008010183","Sedlitz, Ost Bhf",51.553417,14.055357,1968
"256","000008011414","Drebkau, Bahnhof",51.654665,14.221974,3116
"257","000008011536","Ferdinandshof, Bahnhof",53.659646,13.882317,17379
"258","000008011537","Fermerswalde, Bahnhof",51.643071,13.173707,4916
"259","000008011533","Grünheide, Fangschleuse Bhf",52.406916,13.824657,15537
"260","000008013487","S Oranienburg Bhf",52.754362,13.248432,16515
"261","000008013483","S Hennigsdorf (Berlin)",52.637866,13.205875,16761
"262","000008013480","Ferch-Lienewitz, Bahnhof",52.303833,12.964135,14548
"263","000008013481","Potsdam, Golm Bhf",52.410552,12.972179,14476
"264","000008013489","Priort, Bahnhof",52.515563,12.971315,14476
"265","000008012605","Kunersdorf (SPN), Bahnhof",51.769027,14.187491,3099
"266","000008011093","Bärenklau (OHV), Bahnhof",52.704225,13.143258,16727
"267","000008011098","Bahnsdorf (OSL), Bahnhof",51.581728,14.112302,3103
"268","000008010217","Lübben, Bahnhof",51.940702,13.876873,15907
"269","000008010214","Löwenberg (Mark), Bahnhof",52.896962,13.189862,16775
"270","000008010215","Ludwigsfelde, Bahnhof",52.299211,13.267601,14974
"271","000008010334","Stendal, Bahnhof",52.595007,11.854614,39576
"272","000008010335","Stendal, Bahnhof Stadtsee",52.606836,11.836728,39576
"273","000008081220","Saarmund, Bahnhof",52.323649,13.139738,14558
"274","000008012282","Lutherstadt Wittenberg, Bhf Piesteritz",51.871933,12.59623,6888
"275","000008010338","Stralsund, Hauptbahnhof",54.308757,13.077688,18439
"276","000008012280","Lutherstadt Wittenberg, Bhf Altstadt",51.863675,12.641878,6886
"277","000008012289","Magdeburg, Eichenweiler Bahnhof",52.166452,11.657931,39124
"278","000008011408","Dossow, Bahnhof",53.120712,12.521835,16909
"279","000008011409","Drahnsdorf, Bahnhof",51.915672,13.581945,15938
"280","000008013160","Uebigau, Bahnhof",51.585421,13.296546,4938
"281","000008012897","Luckaitztal, Bahnhof",51.685048,14.001706,3229
"282","000008080260","Dallgow-Döberitz, Bahnhof",52.543674,13.05836,14624
"283","900000001103","Berlin, Wiebestr./Huttenstr.",52.528315,13.320255,10589
"284","900000001151","Berlin, Reuchlinstr.",52.5279,13.323632,10551
"285","900000001152","Berlin, Neues Ufer",52.5291,13.315976,10589
"286","900000001154","Berlin, Ilsenburger Str.",52.525753,13.309834,10589
"287","900000001155","Berlin, Goslarer Platz",52.525793,13.314256,10589
"288","900000001202","Berlin, Am Nordhafen",52.53885,13.36361,13355
"289","900000001203","Berlin, Döberitzer Str.",52.530665,13.368107,10117
"290","900000001204","Berlin, Lehrter Str./Invalidenstr.",52.525764,13.365223,10117
"291","900000002101","Berlin, Turmstr./Waldstr.",52.527104,13.33043,10551
"292","900000002102","Berlin, Turmstr./Beusselstr.",52.527339,13.328743,10551
"293","900000002151","Berlin, Wittstocker Str.",52.530856,13.32851,13353
"294","900000002201","U Birkenstr. (Berlin)",52.532229,13.341417,13353
"295","900000002202","Berlin, Wilsnacker Str.",52.526363,13.351406,10557
"296","900000002203","Berlin, Stendaler Str.",52.532458,13.350532,13353
"297","900000002204","Berlin, Perleberger Brücke",52.535329,13.358033,10115
"298","900000002206","Berlin, Turmstr./Rathenower Str.",52.526684,13.354805,10557
"299","900000002207","Berlin, Stromstr.",52.529189,13.344006,10551
"300","900000002254","Berlin, Birkenstr./Rathenower Str.",52.529654,13.352907,10551
"301","900000002255","Berlin, Seydlitzstr.",52.527035,13.364158,10117
"302","900000002256","Berlin, Poststadion",52.530281,13.362431,10115
"303","900000002257","Berlin, Kruppstr.",52.533387,13.359639,10115
"304","900000002258","Berlin, Havelberger Str.",52.531025,13.347673,13353
"305","900000003101","U Hansaplatz (Berlin)",52.518111,13.342165,10557
"306","900000003102","S Bellevue (Berlin)",52.519951,13.347098,10557
"307","900000003103","S Tiergarten (Berlin)",52.513963,13.336235,10557
"308","900000003104","U Turmstr. (Berlin)",52.525938,13.341417,10551
"309","900000003105","Berlin, Bachstr.",52.518598,13.339573,10557
"310","900000003107","Berlin, Alt-Moabit/Gotzkowskystr.",52.523929,13.329892,10551
"311","900000003152","Berlin, Solinger Str.",52.520547,13.335728,10557
"312","900000003155","Berlin, Rathaus Tiergarten",52.526062,13.339166,10551
"313","900000003156","Berlin, Ottostr.",52.524681,13.334925,10557
"314","900000003181","Berlin, Zinzendorfstr.",52.522221,13.331506,10557
"315","900000003201","S+U Berlin Hauptbahnhof",52.525847,13.368924,10117
"316","900000003202","Berlin, Kirchstr./Alt-Moabit",52.524542,13.349582,10557
"317","900000003203","Berlin, Alt-Moabit/Rathenower Str.",52.523692,13.35707,10557
"318","900000003204","Berlin, Kleiner Tiergarten",52.52499,13.345764,10555
"319","900000003251","Berlin, Paulstr.",52.520069,13.355662,10557
"320","900000003252","Berlin, Schloss Bellevue",52.516715,13.354203,10557
"321","900000003253","Berlin, Haus der Kulturen der Welt",52.517598,13.363364,10557
"322","900000003256","Berlin, Spenerstr.",52.524002,13.353543,10557
"323","900000003257","Berlin, Lesser-Ury-Weg",52.524211,13.361978,10557
"324","900000004101","Berlin, Großer Stern",52.515143,13.350177,10557
"325","900000004104","Berlin, Reichstag/Bundestag",52.517716,13.37648,10117
"326","900000004105","Berlin, Platz der Republik",52.517786,13.370442,10117
"327","900000004151","Berlin, Nordische Botschaften/Adenauer-Stiftung",52.509593,13.351406,10785
"328","900000004181","Berlin, Hertzallee",52.509231,13.332615,10557
"329","900000005101","Berlin, Budapester Str.",52.506567,13.345672,10785
"330","900000005103","Berlin, Schillstr.",52.503103,13.349926,10785
"331","900000005105","Berlin, Lützowplatz",52.5049,13.351557,10785
"332","900000005152","Berlin, Gedenkstätte Dt. Widerstand",52.505736,13.363292,10785
"333","900000005154","Berlin, Köbisstr.",52.507165,13.356266,10785
"334","900000005156","Berlin, Bayreuther Str.",52.50443,13.343958,10785
"335","900000005201","U Kurfürstenstr. (Berlin)",52.499778,13.362857,10785
"336","900000005202","Berlin, Lützowstr./Potsdamer Str.",52.503422,13.366003,10785
"337","900000005205","Berlin, Potsdamer Brücke",52.505948,13.368306,10785
"338","900000005206","Berlin, Philharmonie",52.51008,13.368434,10785
"339","900000005252","U Mendelssohn-Bartholdy-Park (Berlin)",52.503806,13.374719,10963
"340","900000005253","Berlin, Schöneberger Brücke",52.502333,13.377751,10963
"341","900000005255","Berlin, Kulturforum",52.507564,13.369181,10963
"342","900000006102","Berlin, Prinzenallee/Soldiner Str.",52.558656,13.386241,13357
"343","900000006103","Berlin, Residenzstr./Reginhardstr.",52.560142,13.370523,13409
"344","900000006104","Berlin, Soldiner Str./Koloniestr.",52.560083,13.381051,13359
"345","900000006105","Berlin, Verlängerte Koloniestr.",52.567545,13.384648,13359
"346","900000006153","Berlin, St.-Elisabeth-Kirchhof",52.560498,13.387759,13359
"347","900000007102","S+U Gesundbrunnen Bhf (Berlin)",52.548637,13.388372,13357
"348","900000007103","U Voltastr. (Berlin)",52.54193,13.393157,13355
"349","900000007104","S Nordbahnhof (Berlin)",52.531673,13.388794,10115
"350","900000007105","Berlin, Wolliner Str.",52.53977,13.4018,10435
"351","900000007106","Berlin, Usedomer Str./Feldstr.",52.539233,13.387132,13355
"352","900000007110","U Bernauer Str. (Berlin)",52.537994,13.396231,10115
"353","900000007111","Berlin, Lortzingstr.",52.544304,13.399173,10439
"354","900000007112","Berlin, Gartenplatz",52.538422,13.384276,13355
"355","900000007113","Berlin, Theodor-Heuss-Weg",52.534952,13.385862,13355
"356","900000007114","Berlin, Gartenstr./Feldstr.",52.536522,13.383818,13355
"357","900000007154","Berlin, Demminer Str.",52.542611,13.399429,13355
"358","900000007155","Berlin, Gleimstr.",52.546042,13.398079,10439
"359","900000007157","Berlin, Rügener Str.",52.545014,13.390793,13355
"360","900000007159","Berlin, Humboldtsteg",52.547391,13.381993,13355
"361","900000007160","Berlin, Grüntaler Str.",52.555358,13.390796,13357
"362","900000007181","Berlin, Usedomer Str.",52.539916,13.389467,13355
"363","900000008101","S Humboldthain (Berlin)",52.544742,13.378726,13355
"364","900000008102","U Reinickendorfer Str. (Berlin)",52.539895,13.370393,13355
"365","900000008103","Berlin, Nettelbeckplatz/S Wedding",52.54467,13.370188,13355
"366","900000008106","Berlin, Brunnenplatz",52.550142,13.377996,13357
"367","900000008151","Berlin, Gerichtstr./Hochstr.",52.543258,13.375717,13355
"368","900000008153","Berlin, Wiesenstr.",52.547593,13.373891,13355
"369","900000008158","Berlin, Schererstr.",52.548214,13.369164,13353
"370","900000009101","U Amrumer Str. (Berlin)",52.542202,13.349534,13353
"371","900000009102","U Leopoldplatz (Berlin)",52.546493,13.359395,13353
"372","900000009103","U Seestr. (Berlin)",52.55047,13.351969,13353
"373","900000009104","S+U Wedding (Berlin)",52.542732,13.36606,13355
"374","900000009105","Berlin, Seestr./Amrumer Str.",52.546219,13.344055,13353
"375","900000009151","Berlin, Gerichtstr.",52.544478,13.362664,13353
"376","900000009152","Berlin, Rathaus Wedding",52.547847,13.356577,13353
"377","900000009153","Berlin, Luxemburger Str.",52.544053,13.35506,13353
"378","900000009154","Berlin, Samoastr.",52.541601,13.354144,13353
"379","900000009155","Berlin, Kiautschoustr.",52.541067,13.357665,13353
"380","900000009156","Berlin, Antwerpener Str.",52.548683,13.348701,13353
"381","900000009201","U Nauener Platz (Berlin)",52.551524,13.367365,13353
"382","900000009202","U Osloer Str. (Berlin)",52.557107,13.373279,13359
"383","900000009203","U Pankstr. (Berlin)",52.552255,13.381837,13357
"384","900000009204","Berlin, Osloer Str./Prinzenallee",52.555936,13.383663,13357
"385","900000009206","Berlin, Drontheimer Str.",52.556529,13.377547,13357
"386","900000009251","Berlin, Maxstr.",52.549415,13.363997,13353
"387","900000009252","Berlin, Exerzierstr.",52.554017,13.371704,13359
"388","900000009253","Berlin, Uferstr.",52.553259,13.378167,13357
"389","900000009254","Berlin, Ritterlandweg/Soldiner Str.",52.560328,13.376929,13359
"390","900000010201","Berlin, Sylter Str.",52.542327,13.336934,13353
"391","900000010251","Berlin, Virchow-Klinikum",52.543493,13.338739,13353
"392","900000011101","U Rehberge (Berlin)",52.55667,13.341013,13349
"393","900000011102","U Afrikanische Str. (Berlin)",52.560862,13.333502,13349
"394","900000011103","Berlin, Otawistr.",52.552681,13.336881,13349
"395","900000011104","Berlin, Glasgower Str.",52.554915,13.345972,13349
"396","900000011105","Berlin, Londoner Str.",52.563362,13.342898,13349
"397","900000011151","Berlin, Türkenstr.",52.553506,13.346593,13349
"398","900000011152","Berlin, Bristolstr.",52.558562,13.351614,13349
"399","900000011153","Berlin, Septimerstr.",52.564254,13.338708,13349
"400","900000011154","Berlin, Nachtigalplatz",52.55693,13.334651,13349
"401","900000011155","Berlin, Transvaalstr.",52.550771,13.338887,13349
"402","900000011201","Berlin, Louise-Schroeder-Platz",52.556982,13.365603,13409
"403","900000011206","Berlin, Holländerstr./Aroser Allee",52.562088,13.353757,13349
"404","900000011207","Berlin, Brienzer Str.",52.561949,13.359578,13407
"405","900000011251","Berlin, Iranische Str.",52.555063,13.365956,13353
"406","900000011252","Berlin, Osram-Höfe",52.553696,13.358291,13353
"407","900000012101","S Anhalter Bahnhof (Berlin)",52.504538,13.382077,10963
"408","900000012102","U Kochstr./Checkpoint Charlie (Berlin)",52.506673,13.390863,10963
"409","900000012103","U Hallesches Tor (Berlin)",52.497774,13.39176,10963
"410","900000012104","Berlin, Lindenstr./Oranienstr.",52.506962,13.398369,10969
"411","900000012105","Berlin, Abgeordnetenhaus",52.506553,13.379666,10963
"412","900000012151","Berlin, Willy-Brandt-Haus",52.500413,13.38744,10963
"413","900000012152","Berlin, Blücherstr.",52.495785,13.396616,10969
"414","900000012153","Berlin, Wilhelmstr./Kochstr.",52.50589,13.386361,10963
"415","900000012154","Berlin, Charlottenstr.",52.506885,13.393536,10963
"416","900000012155","Berlin, Waldeckpark",52.506175,13.401835,10969
"417","900000012156","Berlin, Alexandrinenstr.",52.505154,13.405322,10999
"418","900000012157","Berlin, Jüdisches Museum",52.503543,13.395639,10963
"419","900000012158","Berlin, Franz-Klühs-Str.",52.500417,13.394804,10963
"420","900000013101","U Moritzplatz (Berlin)",52.503739,13.410947,10997
"421","900000013102","U Kottbusser Tor (Berlin)",52.499047,13.417748,10997
"422","900000013103","U Prinzenstr. (Berlin)",52.498274,13.406531,10999
"423","900000013104","Berlin, Prinzenstr./Ritterstr.",52.501647,13.409275,10997
"424","900000013151","Berlin, Segitzdamm",52.500239,13.41434,10997
"425","900000013152","Berlin, Oranienplatz",52.502244,13.41573,10997
"426","900000014101","U Görlitzer Bahnhof (Berlin)",52.499035,13.428468,10997
"427","900000014102","U Schlesisches Tor (Berlin)",52.501147,13.441791,10997
"428","900000014103","Berlin, Adalbertstr./Oranienstr.",52.501285,13.419293,10997
"429","900000014104","Berlin, Manteuffelstr./Köpenicker Str.",52.505634,13.432011,10997
"430","900000014105","Berlin, Waldemarstr./Manteuffelstr.",52.501172,13.427919,10997
"431","900000014106","Berlin, Lausitzer Platz",52.49947,13.431914,10997
"432","900000014107","Berlin, Bethaniendamm",52.507214,13.428439,10997
"433","900000014151","Berlin, Waldemarstr./Adalbertstr.",52.50289,13.421819,10997
"434","900000014152","Berlin, Mariannenplatz",52.502203,13.424418,10997
"435","900000014153","Berlin, Wrangelstr.",52.503492,13.430012,10997
"436","900000014154","Berlin, Eisenbahnstr.",52.504475,13.434934,10997
"437","900000014155","Berlin, Falckensteinstr.",52.500052,13.443949,10243
"438","900000014156","Berlin, Heinrichplatz",52.500271,13.422912,10997
"439","900000015101","Berlin, Heckmannufer",52.497011,13.449298,10243
"440","900000015103","Berlin, Glogauer Str.",52.493536,13.437272,10997
"441","900000015104","Berlin, Ohlauer Str.",52.495569,13.430476,10997
"442","900000015151","Berlin, Taborstr.",52.498214,13.447261,10243
"443","900000015152","Berlin, Spreewaldplatz",52.497644,13.43128,10997
"444","900000016101","U Gneisenaustr. (Berlin)",52.491252,13.395382,10969
"445","900000016103","Berlin, Zossener Brücke",52.498427,13.395845,10969
"446","900000016151","Berlin, Marheinekeplatz",52.489383,13.393821,10965
"447","900000016152","Berlin, Jüterboger Str.",52.486248,13.394414,12101
"448","900000016153","Berlin, Gneisenaustr./Baerwaldstr.",52.490386,13.400214,10967
"449","900000016154","Berlin, Urbanstr./Baerwaldstr.",52.49391,13.403182,10969
"450","900000016157","Berlin, Tempelherrenstr.",52.494335,13.400634,10969
"451","900000016201","U Schönleinstr. (Berlin)",52.493179,13.422241,10997
"452","900000016202","U Südstern (Berlin)",52.489219,13.407685,10967
"453","900000016203","Berlin, Klinikum Am Urban",52.493364,13.406787,10969
"454","900000016204","Berlin, Körtestr.",52.492039,13.41234,10969
"455","900000016250","Berlin, Hasenheide",52.487556,13.418968,10999
"456","900000016251","Berlin, Fichtestr.",52.488338,13.412987,10967
"457","900000016252","Berlin, Graefestr.",52.490969,13.416148,10967
"458","900000016254","Berlin, Wilmsstr.",52.49519,13.404342,10969
"459","900000016255","Berlin, Kottbusser Brücke",52.495534,13.420698,10997
"460","900000017100","Berlin, Obentrautstr./U Mehringdamm",52.495817,13.389342,10963
"461","900000017101","U Mehringdamm (Berlin)",52.493575,13.388153,10963
"462","900000017102","U Platz der Luftbrücke (Berlin)",52.484977,13.386351,12101
"463","900000017103","U Gleisdreieck (Berlin)",52.499587,13.374293,10963
"464","900000017104","U Möckernbrücke (Berlin)",52.498944,13.383256,10963
"465","900000017105","Berlin, Yorckstr./Großbeerenstr.",52.493634,13.383826,10963
"466","900000017106","Berlin, Platz der Luftbrücke",52.483441,13.387038,12101
"467","900000017109","Berlin, Katzbachstr./Kreuzbergstr.",52.48931,13.377064,10965
"468","900000017151","Berlin, Bergmannstr.",52.490071,13.386511,10965
"469","900000017152","Berlin, Kreuzberg/Wasserfall",52.490174,13.382333,10965
"470","900000017181","Berlin, Columbiadamm/Platz der Luftbrücke",52.484359,13.390012,12101
"471","900000018101","U Jakob-Kaiser-Platz (Berlin)",52.536985,13.293661,13627
"472","900000018102","U Halemweg (Berlin)",52.536703,13.286578,13627
"473","900000018103","Berlin, Weltlingerbrücke",52.539576,13.295064,13627
"474","900000018105","Berlin, Hinckeldeybrücke",52.546621,13.299222,13627
"475","900000018106","Berlin, Goerdelerdamm",52.534949,13.29817,13627
"476","900000018151","Berlin, Habermannzeile",52.539671,13.291279,13627
"477","900000018152","Berlin, Hofackerzeile",52.537105,13.290865,13627
"478","900000018153","Berlin, Dahrendorfzeile",52.535148,13.289038,13627
"479","900000019102","Berlin, Gloedenpfad",52.539408,13.302134,13627
"480","900000019103","Berlin, Seestr./Beusselstr.",52.53825,13.326346,13353
"481","900000019152","Berlin, Gedenkstätte Plötzensee",52.5421,13.324383,13627
"482","900000019153","Berlin, Friedrich-Olbricht-Damm/Saatwinkler Damm",52.547552,13.312577,13627
"483","900000019155","Berlin, Thaters Privatweg",52.539446,13.310109,13627
"484","900000019156","Berlin, Kolonie Zukunft",52.539464,13.305231,13627
"485","900000019158","Berlin, Berliner Großmarkt",52.536651,13.327005,13353
"486","900000019202","Berlin, Reichweindamm",52.535653,13.300402,13627
"487","900000019203","Berlin, Friedrich-Olbricht-Damm/Heckerdamm",52.541216,13.314967,13627
"488","900000019204","U Mierendorffplatz (Berlin)",52.525978,13.305715,10589
"489","900000019205","Berlin, Quedlinburger Str.",52.52292,13.305919,10589
"490","900000019252","Berlin, Wirmerzeile",52.536903,13.302708,13627
"491","900000019253","Berlin, Keplerstr.",52.528144,13.304866,13627
"492","900000020101","Berlin, Friedhöfe Fürstenbrunner Weg",52.524469,13.279296,14050
"493","900000020102","Berlin, Rohrdammbrücke",52.528499,13.26979,13629
"494","900000020103","Berlin, Kirschenallee",52.520384,13.267228,14050
"495","900000020105","Berlin, Machandelweg",52.524825,13.245063,14053
"496","900000020151","Berlin, Fürstenbrunner Weg",52.520957,13.27993,14050
"497","900000020152","Berlin, Kastanienallee",52.519513,13.272227,14050
"498","900000020153","Berlin, DRK-Kliniken Westend",52.518712,13.276432,14050
"499","900000020201","S+U Jungfernheide Bhf (Berlin)",52.530275,13.299064,13627
"500","900000020204","Berlin, Sophie-Charlotten-Str.",52.518816,13.286792,14050
"501","900000020206","Berlin, Pulsstr.",52.52432,13.285612,14059
"502","900000020207","Berlin, Tegeler Weg/S Jungfernheide",52.529407,13.296238,13627
"503","900000020208","Berlin, Osnabrücker Str.",52.526914,13.297388,13627
"504","900000020252","Berlin, Schlossbrücke",52.522941,13.299908,10589
"505","900000020271","Berlin, Mollwitzstr.",52.522169,13.285903,14050
"506","900000020272","Berlin, Schlosspark-Klinik",52.522839,13.288737,10587
"507","900000020281","Berlin, Goerdelersteg",52.532177,13.305899,13627
"508","900000021102","Berlin, Marchbrücke",52.51715,13.32375,10557
"509","900000021151","Berlin, Marchstr.",52.513495,13.322639,10623
"510","900000021152","Berlin, Franklinstr.",52.522043,13.328141,10557
"511","900000021181","Berlin, Helmholtzstr.",52.520827,13.321238,10589
"512","900000022101","U Sophie-Charlotte-Platz (Berlin)",52.51097,13.297463,14059
"513","900000022103","Berlin, Klausenerplatz",52.519125,13.291368,14059
"514","900000022105","Berlin, Haubachstr.",52.515391,13.300864,14057
"515","900000022106","Berlin, Bismarckstr./Kaiser-Friedrich-Str.",52.511284,13.301597,14057
"516","900000022151","Berlin, Eosanderstr.",52.518268,13.304013,10587
"517","900000022152","Berlin, Seelingstr.",52.516374,13.296444,14059
"518","900000022153","Berlin, Zillestr.",52.513367,13.2969,14059
"519","900000022171","Berlin, Schloss Charlottenburg",52.519255,13.295954,14059
"520","900000022172","Berlin, Luisenplatz/Schloss Charlottenburg",52.519574,13.299632,14059
"521","900000022201","U Deutsche Oper (Berlin)",52.511827,13.30942,10625
"522","900000022202","U Richard-Wagner-Platz (Berlin)",52.517154,13.307221,10587
"523","900000022203","Berlin, Dovebrücke",52.518438,13.320268,10623
"524","900000022251","Berlin, Guerickestr.",52.517508,13.317441,10623
"525","900000022252","Berlin, Warburgzeile",52.516211,13.310405,10625
"526","900000023101","U Ernst-Reuter-Platz (Berlin)",52.511582,13.322581,10623
"527","900000023104","Berlin, Otto-Suhr-Allee/Leibnizstr.",52.514638,13.315249,10623
"528","900000023105","Berlin, Uhlandstr./Kantstr.",52.505624,13.325731,10719
"529","900000023152","Berlin, Steinplatz",52.509043,13.326202,10719
"530","900000023201","S+U Zoologischer Garten Bhf (Berlin)",52.506921,13.332707,10719
"531","900000023202","U Augsburger Str. (Berlin)",52.500557,13.336771,10719
"532","900000023203","U Kurfürstendamm (Berlin)",52.503763,13.331419,10719
"533","900000023204","Berlin, Europa-Center",52.50393,13.337256,10719
"534","900000023206","Berlin, Joachimsthaler Str./Kantstr.",52.505351,13.330804,10719
"535","900000023252","Berlin, Breitscheidplatz",52.505045,13.337201,10719
"536","900000023301","U Uhlandstr. (Berlin)",52.502742,13.326233,10719
"537","900000023302","U Adenauerplatz (Berlin)",52.500086,13.307348,10629
"538","900000023304","Berlin, Olivaer Platz",52.50094,13.312999,10629
"539","900000023305","Berlin, Lietzenburger Str./Uhlandstr.",52.500028,13.32546,10719
"540","900000023351","Berlin, Bleibtreustr.",52.501732,13.320165,10719
"541","900000023352","Berlin, Pariser Str.",52.49791,13.324424,10719
"542","900000023354","Berlin, Friedrich-Hollaender-Platz",52.500445,13.330729,10719
"543","900000024101","S Charlottenburg Bhf (Berlin)",52.504805,13.303843,14057
"544","900000024102","S Westkreuz (Berlin)",52.501152,13.283036,10711
"545","900000024104","Berlin, Amtsgerichtsplatz",52.506858,13.295427,14059
"546","900000024106","S Messe Nord/ICC (Berlin)",52.506454,13.283043,14059
"547","900000024108","Berlin, Kaiser-Friedrich-Str./Kantstr.",52.506781,13.302495,14057
"548","900000024151","Berlin, Kuno-Fischer-Str.",52.506615,13.289779,14059
"549","900000024201","U Bismarckstr. (Berlin)",52.511543,13.305335,14057
"550","900000024202","U Wilmersdorfer Str. (Berlin)",52.506415,13.306774,14057
"551","900000024203","S Savignyplatz (Berlin)",52.505223,13.319003,10719
"552","900000024207","Berlin, Kantstr./Leibnizstr.",52.506294,13.313968,10623
"553","900000024208","Berlin, Bismarckstr./Leibnizstr.",52.512127,13.314776,10623
"554","900000024251","Berlin, Goethestr.",52.508825,13.314309,10623
"555","900000024252","Berlin, Schlüterstr.",52.506074,13.317644,10623
"556","900000024253","Berlin, Mommsenstr.",52.503333,13.313585,10625
"557","900000025101","Berlin, Scholzplatz",52.506595,13.228287,14055
"558","900000025151","Berlin, Ragniter Allee",52.507088,13.235297,14055
"559","900000025152","Berlin, Mohrunger Allee",52.507938,13.249343,14055
"560","900000025154","Berlin, Am Postfenn",52.500731,13.209539,14193
"561","900000025155","Berlin, Schildhorn",52.494569,13.199504,14193
"562","900000025202","U Ruhleben (Berlin)",52.525587,13.241902,14053
"563","900000025203","U Olympia-Stadion (Berlin)",52.517048,13.2505,14053
"564","900000025252","Berlin, Spandauer Damm/Reichsstr.",52.523703,13.2501,14053
"565","900000025253","Berlin, Park Ruhwald",52.522554,13.255018,14050
"566","900000025254","Berlin, Meiningenallee",52.521781,13.259298,14050
"567","900000025255","Berlin, Wiesendammbrücke",52.527906,13.243588,14052
"568","900000025301","Berlin, Flatowallee/Olympiastadion",52.507473,13.241523,14055
"569","900000025321","S Olympiastadion (Berlin)",52.511135,13.241111,14053
"570","900000025401","Berlin, Maikäferpfad",52.49477,13.266432,14055
"571","900000025420","Berlin, Kühler Weg",52.496426,13.262872,14055
"572","900000025422","Berlin, Waldschulallee/Harbigstr.",52.501197,13.262126,14055
"573","900000025423","S Messe Süd (Berlin)",52.498771,13.27045,14055
"574","900000025424","S Pichelsberg (Berlin)",52.510264,13.227196,14055
"575","900000025451","Berlin, Alte Allee",52.492119,13.263043,14055
"576","900000025452","Berlin, Kiefernweg",52.4936,13.264926,14055
"577","900000025551","Berlin, Messegelände/Verwaltung",52.501509,13.274917,14052
"578","900000025552","Berlin, Messegelände/ICC",52.504694,13.279605,14059
"579","900000026101","U Neu-Westend (Berlin)",52.516409,13.25991,14050
"580","900000026102","Berlin, Brixplatz",52.519693,13.256218,14050
"581","900000026105","S Heerstr. (Berlin)",52.508273,13.258514,14055
"582","900000026151","Berlin, Hessenallee",52.514299,13.263974,14050
"583","900000026152","Berlin, Reichsstr./Kastanienallee",52.511478,13.268902,14050
"584","900000026153","Berlin, Württembergallee",52.508943,13.265618,14055
"585","900000026154","Berlin, Westendallee",52.521324,13.253244,14050
"586","900000026171","Berlin, Altenburger Allee",52.518587,13.25791,14050
"587","900000026201","Berlin, U Theodor-Heuss-Platz",52.509798,13.272977,14050
"588","900000026202","U Kaiserdamm (Berlin)",52.509985,13.281695,14050
"589","900000026204","Berlin, Messedamm/ZOB",52.507001,13.280703,14059
"590","900000026205","Berlin, Knobelsdorffstr.",52.512826,13.281432,14050
"591","900000026206","Berlin, Königin-Elisabeth-Str/Spandauer Damm",52.518347,13.280296,14050
"592","900000026207","S Westend (Berlin)",52.51861,13.284237,14050
"593","900000026251","Berlin, Haus des Rundfunks",52.507423,13.276591,14059
"594","900000026271","Berlin, U Theodor-Heuss-Platz West",52.510088,13.271071,14050
"595","900000027101","Berlin, Oberjägerweg",52.585026,13.176935,13587
"596","900000027201","Berlin, Johannesstift",52.566715,13.192624,13587
"597","900000027202","Berlin, Klinkeplatz",52.555439,13.198584,13585
"598","900000027204","Berlin, Havelschanze",52.554074,13.20732,13585
"599","900000027205","Berlin, Aalemannufer",52.573261,13.212685,13587
"600","900000027206","Berlin, Rauchstr.",52.561522,13.208439,13587
"601","900000027207","Berlin, Cautiusstr.",52.562511,13.196875,13587
"602","900000027251","Berlin, Mögeldorfer Weg",52.559836,13.197451,13587
"603","900000027252","Berlin, Schülerbergstr.",52.551895,13.199756,13585
"604","900000027253","Berlin, Amorbacher Weg",52.557278,13.207777,13587
"605","900000027254","Berlin, Mertensstr.",52.565341,13.20934,13587
"606","900000027255","Berlin, Siedlung Hakenfelde",52.570851,13.212766,13587
"607","900000027256","Berlin, Goltzstr./Rauchstr.",52.561116,13.21297,13587
"608","900000027257","Berlin, Mertensstr./Goltzstr.",52.564687,13.21528,13587
"609","900000027258","Berlin, Rustweg",52.575446,13.211625,13587
"610","900000027259","Berlin, Werderstr.",52.567762,13.210808,13587
"611","900000027260","Berlin, Eschenweg",52.567651,13.210171,13587
"612","900000027261","Berlin, Hugo-Cassirer-Str.",52.559923,13.218835,13587
"613","900000027262","Berlin, Spandauer-See-Brücke",52.556334,13.219178,13585
"614","900000027291","Berlin, Papenberger Weg",52.578272,13.210345,13587
"615","900000027292","Berlin, Bürgerablage",52.58438,13.207194,13587
"616","900000027301","Berlin, Am Kiesteich",52.551159,13.165502,13589
"617","900000027302","Berlin, Falkenseer Chaussee/Stadtrandstr.",52.553441,13.153634,13589
"618","900000027304","Berlin, Wasserwerk Spandau",52.556663,13.164188,13589
"619","900000027305","Berlin, Freudstr./Goldkäferweg",52.55672,13.149149,13589
"620","900000027306","Berlin, Waldkrankenhaus",52.562184,13.158376,13589
"621","900000027307","Berlin, Griesingerstr./Stadtrandstr.",52.560174,13.157158,13589
"622","900000027308","Berlin, Hochhausweg",52.550439,13.152818,13589
"623","900000027309","Berlin, Spektefeld",52.548376,13.162465,13589
"624","900000027351","Berlin, Paul-Gerhardt-Ring",52.54871,13.159555,13589
"625","900000027352","Berlin, Im Spektefeld/Schulzentrum",52.549031,13.156216,13589
"626","900000027353","Berlin, Glühwürmchenweg",52.556645,13.15509,13589
"627","900000027354","Berlin, Wolburgsweg",52.555616,13.169247,13589
"628","900000027355","Berlin, Frankenwaldstr.",52.554402,13.174744,13583
"629","900000027356","Berlin, Friedhof In den Kisseln",52.553091,13.180017,13583
"630","900000027358","Berlin, Sandwiesenweg",52.562876,13.165724,13589
"631","900000027359","Berlin, Bötzow-Bahn",52.560818,13.172099,13589
"632","900000027360","Berlin, Gliensteig",52.55949,13.177342,13589
"633","900000027361","Berlin, Schwanter Weg",52.558136,13.182393,13589
"634","900000027362","Berlin, Freudstr.",52.554148,13.149377,13589
"635","900000027363","Berlin, Am Bogen",52.552306,13.159502,13589
"636","900000027364","Berlin, Beerwinkel",52.551786,13.162054,13589
"637","900000027365","Berlin, Spektebrücke",52.545851,13.161499,13589
"638","900000027372","Berlin, Radelandstr./Pflegeheim",52.563968,13.161579,13589
"639","900000027401","Berlin, Falkenseer Chaussee/Zeppelinstr.",52.547562,13.184733,13583
"640","900000027402","Berlin, Pionierstr./Zeppelinstr.",52.551508,13.185577,13583
"641","900000027403","Berlin, Hohenzollernring/Falkenseer Chaussee",52.546422,13.190894,13583
"642","900000027404","Berlin, Dyrotzer Str.",52.541617,13.168064,13583
"643","900000027405","Berlin, Pausiner Str.",52.556152,13.188503,13583
"644","900000027451","Berlin, Spekteweg",52.541994,13.183492,13583
"645","900000027452","Berlin, Merziger Str.",52.544774,13.184068,13583
"646","900000027453","Berlin, Westerwaldstr.",52.54877,13.178117,13583
"647","900000027454","Berlin, Mülheimer Str.",52.549932,13.172413,13583
"648","900000027455","Berlin, Falkenhagener Tor",52.550203,13.190259,13583
"649","900000027456","Berlin, Zweibrücker Str.",52.546898,13.188253,13583
"650","900000027457","Berlin, Viersener Str.",52.540109,13.175099,13583
"651","900000027458","Berlin, Leuthingerweg",52.541834,13.164237,13583
"652","900000028101","Berlin, Eiswerderstr.",52.547938,13.209805,13585
"653","900000028151","Berlin, Kirchhofstr.",52.545286,13.208096,13585
"654","900000028152","Berlin, Neue Bergstr.",52.550723,13.209882,13585
"655","900000029101","S Spandau Bhf (Berlin)",52.534798,13.197477,13581
"656","900000029102","Berlin, Zeppelinstr./Seegefelder Str.",52.53849,13.18244,13583
"657","900000029103","Berlin, Falkenseer Platz",52.540989,13.201979,13597
"658","900000029104","Berlin, Borkzeile",52.536632,13.190334,13581
"659","900000029106","Berlin, Borchertweg",52.54365,13.193104,13597
"660","900000029152","Berlin, Dallgower Str.",52.537656,13.186824,13597
"661","900000029153","Berlin, Jenneweg",52.540944,13.194976,13597
"662","900000029154","Berlin, Galenstr./Hohenzollernring",52.538717,13.197465,13597
"663","900000029155","Berlin, Askanierring",52.545947,13.193387,13583
"664","900000029156","Berlin, Flankenschanze",52.542839,13.198609,13597
"665","900000029157","Berlin, Schulzenstr.",52.539084,13.178756,13583
"666","900000029201","Berlin, Wröhmännerpark",52.542045,13.205958,13597
"667","900000029202","Berlin, Moritzstr.",52.538603,13.20072,13597
"668","900000029203","Berlin, Hügelschanze",52.548658,13.200832,13585
"669","900000029204","Berlin, Windmühlenberg",52.548634,13.194345,13583
"670","900000029251","Berlin, Kurze Str./Mittelstr.",52.546221,13.200073,13585
"671","900000029252","Berlin, Predigergarten",52.545304,13.203689,13585
"672","900000029301","U Altstadt Spandau (Berlin)",52.539161,13.206763,13597
"673","900000029302","S+U Rathaus Spandau (Berlin)",52.535798,13.199891,13581
"674","900000029303","Berlin, Breite Str./Markt",52.536036,13.204761,13597
"675","900000030101","Berlin, Krematorium Ruhleben",52.527759,13.231795,13597
"676","900000030102","Berlin, Polizeidirektion 2",52.528335,13.228245,13597
"677","900000030151","Berlin, Güterbahnhof Ruhleben",52.528673,13.221653,13597
"678","900000030152","Berlin, Heidereuterstr.",52.528727,13.207656,13581
"679","900000030153","Berlin, Freiheit 16-43",52.530833,13.221418,13597
"680","900000030154","Berlin, Pichelswerderstr.",52.53181,13.213783,13597
"681","900000030155","Berlin, Werkring",52.528957,13.237576,13597
"682","900000030156","Berlin, Tiefwerderweg",52.526089,13.207303,13581
"683","900000030191","Berlin, Klärwerkstr.",52.529544,13.233024,13597
"684","900000030202","S Stresow (Berlin)",52.532505,13.20913,13597
"685","900000030251","Berlin, Stresowplatz",52.533859,13.206765,13581
"686","900000030291","Berlin, Ruhlebener Str./Grunewaldstr.",52.530562,13.204022,13581
"687","900000031101","Berlin, Brunsbütteler Damm/Ruhlebener Str.",52.532957,13.198193,13581
"688","900000031102","Berlin, Ziegelhof",52.529041,13.195345,13581
"689","900000031103","Berlin, Päwesiner Weg",52.533827,13.176906,13583
"690","900000031151","Berlin, Metzer Platz",52.52505,13.197167,13581
"691","900000031152","Berlin, Elsflether Weg",52.533902,13.19365,13581
"692","900000031153","Berlin, Grünhofer Weg",52.534316,13.188208,13581
"693","900000031154","Berlin, Nauener Str.",52.534104,13.182455,13583
"694","900000031155","Berlin, Egelpfuhlstr.",52.53358,13.170164,13581
"695","900000031156","Berlin, Harburger Weg",52.533297,13.163289,13591
"696","900000032101","Berlin, Am Omnibushof",52.51762,13.18624,13593
"697","900000032102","Berlin, Heerstr./Wilhelmstr.",52.516693,13.179158,13593
"698","900000032103","Berlin, Weinmeisterhornweg",52.511017,13.171583,13593
"699","900000032104","Berlin, Melanchthonplatz",52.521664,13.188927,13581
"700","900000032105","Berlin, Lutoner Str.",52.525302,13.177503,13593
"701","900000032106","Berlin, Gatower Str./Heerstr.",52.51554,13.184843,13593
"702","900000032152","Berlin, Földerichplatz",52.521053,13.193449,13581
"703","900000032153","Berlin, Kolonie Hasenheide",52.523406,13.184598,13581
"704","900000032155","Berlin, Rodensteinstr.",52.513735,13.174837,13593
"705","900000032156","Berlin, Karolinenhöhe",52.508423,13.167581,13593
"706","900000032157","Berlin, Seecktstr.",52.527759,13.187884,13581
"707","900000032158","Berlin, Seeburger Str./Päwesiner Weg",52.526327,13.181877,13593
"708","900000032201","Berlin, Gatower Str./Weinmeisterhornweg",52.509143,13.180164,13595
"709","900000032251","Berlin, Sandheideweg",52.512444,13.182609,13595
"710","900000032252","Berlin, Zur Haveldüne",52.503396,13.179716,13595
"711","900000032253","Berlin, Biberburg",52.498144,13.180046,13595
"712","900000032254","Berlin, Emil-Basdeck-Str.",52.493416,13.180184,14089
"713","900000032255","Berlin, Pfirsichweg",52.490808,13.180321,14089
"714","900000032256","Berlin, Gatow Kirche",52.486745,13.182214,14089
"715","900000032301","Berlin, Teltower Str.",52.527019,13.21645,13597
"716","900000032302","Berlin, Stößenseebrücke",52.508948,13.217129,14055
"717","900000032351","Berlin, Freybrücke",52.512298,13.200635,13595
"718","900000032352","Berlin, Pichelswerder",52.510652,13.20878,13595
"719","900000032353","Berlin, Götelstr.",52.523744,13.202804,13581
"720","900000032401","Berlin, Pichelsdorfer Str./Weißenburger Str.",52.52251,13.197746,13581
"721","900000032402","Berlin, Alt-Pichelsdorf",52.513208,13.196948,13595
"722","900000032405","Berlin, Metzer Str.",52.525461,13.193863,13581
"723","900000032451","Berlin, Genfenbergstr.",52.517595,13.197627,13595
"724","900000032452","Berlin, Jaczostr.",52.514155,13.191199,13593
"725","900000032481","Berlin, Betckestr.",52.521009,13.197794,13581
"726","900000033101","U Zitadelle (Berlin)",52.537522,13.217625,13597
"727","900000033151","Berlin, Motorradwerk",52.537104,13.223361,13599
"728","900000034101","U Paulsternstr. (Berlin)",52.538098,13.248593,13599
"729","900000034102","U Haselhorst (Berlin)",52.538718,13.232309,13599
"730","900000034103","Berlin, Paulsternstr./Gartenfelder Str.",52.54428,13.246203,13599
"731","900000034104","Berlin, Lüdenscheider Weg",52.54712,13.23676,13599
"732","900000034105","Berlin, Haselhorster Damm/Gartenfelder Str.",52.543125,13.240628,13599
"733","900000034151","Berlin, Siedlung Haselhorst",52.541916,13.235877,13599
"734","900000034153","Berlin, Burscheider Weg",52.544937,13.23832,13599
"735","900000034155","Berlin, Kolonie Haselbusch",52.552753,13.230874,13599
"736","900000035101","U Siemensdamm (Berlin)",52.537026,13.273323,13629
"737","900000035103","Berlin, Saatwinkler Damm/Rohrdamm",52.547955,13.258942,13629
"738","900000035104","Berlin, Quellweg",52.536762,13.267774,13629
"739","900000035105","Berlin, Mäckeritzbrücke",52.548652,13.270269,13629
"740","900000035106","Berlin, Gartenfeld",52.548316,13.247777,13599
"741","900000035152","Berlin, Toeplerstr./Halemweg",52.538157,13.286695,13627
"742","900000035153","Berlin, Schweiggerweg",52.538169,13.282303,13629
"743","900000035154","Berlin, Goebelplatz",52.538119,13.280282,13629
"744","900000035155","Berlin, Popitzweg",52.536876,13.278831,13629
"745","900000035156","Berlin, Saatwinkler Damm 137",52.548461,13.262892,13629
"746","900000036101","U Rohrdamm (Berlin)",52.536904,13.26287,13629
"747","900000036151","Berlin, Schaltwerk",52.537565,13.256536,13599
"748","900000036152","Berlin, Rohrdamm/Wasserwerk",52.531239,13.267349,13629
"749","900000036153","Berlin, Straße am Schaltwerk",52.541636,13.262401,13629
"750","900000036154","Berlin, Köttgenstr.",52.543951,13.261082,13629
"751","900000036155","Berlin, Harriesstr.",52.546147,13.259922,13629
"752","900000037101","Berlin, Magistratsweg/Brunsbütteler Damm",52.532982,13.157872,13591
"753","900000037102","Berlin, Heidebergplan",52.540841,13.147275,13591
"754","900000037103","Berlin, Brunsbütteler Damm/Nennhauser Damm",52.532582,13.142624,13591
"755","900000037105","Berlin, Gartenstadt Staaken",52.539641,13.149587,13591
"756","900000037106","Berlin, Klosterbuschweg",52.539172,13.157151,13591
"757","900000037107","Berlin, Hackbuschstr./Straße 603",52.544568,13.15119,13591
"758","900000037108","Berlin, Eckenerweg",52.541699,13.150526,13591
"759","900000037109","Berlin, Döberitzer Weg",52.52864,13.132943,13591
"760","900000037111","Berlin, Schulstr.",52.530184,13.13313,13591
"761","900000037122","Berlin, Brandwerder",52.53548,13.156965,13591
"762","900000037130","Berlin, Möthlower Str.",52.547937,13.137421,14612
"763","900000037132","Berlin, Ungewitterweg",52.542757,13.14333,13591
"764","900000037133","Berlin, Seegefelder Weg",52.546303,13.143776,13591
"765","900000037151","Berlin, Louise-Schroeder-Siedlung",52.532904,13.152963,13591
"766","900000037152","Berlin, Zweiwinkelweg",52.532823,13.148378,13591
"767","900000037154","Berlin, Seegefelder Weg/Klosterbuschweg",52.543083,13.157844,13589
"768","900000037155","Berlin, Isenburger Weg",52.540271,13.135542,13591
"769","900000037158","Berlin, Oberdorfer Steig",52.541653,13.131967,13591
"770","900000037159","Berlin, Hauptstr.",52.530337,13.140532,13591
"771","900000037167","Berlin, Ferbitzer Weg",52.544369,13.128912,13591
"772","900000037168","Berlin, Albrechtshof Bhf",52.549447,13.128968,14612
"773","900000037169","Berlin, Jänickendorfer Weg",52.548385,13.129103,14612
"774","900000037171","Berlin, Am Kurzen Weg",52.539643,13.14661,13591
"775","900000037191","Berlin, Finkenkruger Weg",52.539611,13.143396,13591
"776","900000037201","Berlin, Rudolf-Wissell-Siedlung",52.523524,13.161838,13593
"777","900000037202","Berlin, Sandstr.",52.518546,13.17,13593
"778","900000037203","Berlin, Hahneberg",52.523475,13.146631,13593
"779","900000037204","Berlin, Reimerweg",52.52158,13.155775,13593
"780","900000037205","Berlin, Leubnitzer Weg",52.522966,13.172873,13593
"781","900000037207","Berlin, Heerstr./Magistratsweg",52.520997,13.162964,13593
"782","900000037209","Berlin, Buschower Weg",52.526507,13.132299,13591
"783","900000037211","Berlin, Heerstr./Nennhauser Damm",52.528949,13.123122,13591
"784","900000037251","Berlin, Baluschekweg",52.523983,13.166358,13593
"785","900000037252","Berlin, Springerzeile",52.527639,13.160163,13593
"786","900000037254","Berlin, Obstallee",52.51981,13.173069,13593
"787","900000037255","Berlin, Heerstr. 438-446",52.520571,13.160581,13593
"788","900000038103","Berlin, Landschaftsfriedhof Gatow",52.498332,13.152853,14089
"789","900000038104","Berlin, Alt-Gatow",52.483411,13.183067,14089
"790","900000038151","Berlin, Annenweg",52.481455,13.173755,14089
"791","900000038152","Berlin, Gatower Heide",52.482281,13.151903,14089
"792","900000038201","Berlin, Breitehornweg",52.470407,13.169473,14089
"793","900000038202","Berlin, Habichtswald",52.479604,13.142531,14089
"794","900000038204","Berlin, Ritterfelddamm/Potsdamer Chaussee",52.477529,13.119913,14089
"795","900000038251","Berlin, Helleberge",52.47424,13.17452,13595
"796","900000038252","Berlin, Am Graben",52.478902,13.179251,13595
"797","900000038254","Berlin, Christoph-Kolumbus-Str.",52.467354,13.165581,14089
"798","900000038255","Berlin, General-Steinhoff-Kaserne",52.464524,13.161857,14089
"799","900000038256","Berlin, Außenweg",52.48518,13.135535,14476
"800","900000039101","Berlin, Gutsstr.",52.474939,13.120966,14089
"801","900000039102","Berlin, Alt-Kladow",52.454315,13.144273,14089
"802","900000039103","Berlin, Hottengrund",52.445576,13.125912,14089
"803","900000039105","Berlin, Lanzendorfer Weg",52.448766,13.114564,14089
"804","900000039106","Berlin, Parnemannweg",52.45226,13.138351,14089
"805","900000039107","Berlin, Krampnitzer Weg/Selbitzer Str.",52.45327,13.122033,14089
"806","900000039108","Berlin, Waldallee",52.465588,13.129012,14089
"807","900000039109","Berlin, Krankenhaus Havelhöhe",52.462676,13.158718,14089
"808","900000039151","Berlin, Grimmelshausenstr.",52.452946,13.128689,14089
"809","900000039152","Berlin, Pottensteiner Weg",52.450463,13.118579,14089
"810","900000039153","Berlin, Neukladower Allee",52.459811,13.153935,14089
"811","900000039154","Berlin, Finnenhaus-Siedlung",52.456616,13.148011,14089
"812","900000039155","Berlin, Schallweg",52.456056,13.140788,14089
"813","900000039156","Berlin, Schwabinger Weg",52.458221,13.138137,14089
"814","900000039157","Berlin, Gredinger Str.",52.461643,13.133723,14089
"815","900000039158","Berlin, Seekorso",52.467904,13.126438,14089
"816","900000039159","Berlin, Kurpromenade",52.470771,13.123568,14089
"817","900000039160","Berlin, Gößweinsteiner Gang",52.450802,13.132076,14089
"818","900000039161","Berlin, Temmeweg",52.449259,13.129933,14089
"819","900000039162","Berlin, Kaserne Hottengrund",52.447287,13.127471,14089
"820","900000039163","Berlin, Benfeyweg",52.457422,13.123905,14089
"821","900000039164","Berlin, Zingerleweg",52.460433,13.126747,14089
"822","900000039165","Berlin, Katzwanger Steig",52.463842,13.129247,14089
"823","900000040101","S Halensee (Berlin)",52.496698,13.290151,10711
"824","900000040102","Berlin, Joachim-Friedrich-Str./Westfälische Str.",52.495888,13.295988,10711
"825","900000040104","Berlin, Kurfürstendamm/Joachim-Friedrich-Str.",52.498041,13.296346,10711
"826","900000040151","Berlin, Lehniner Platz/Schaubühne",52.498925,13.301806,10711
"827","900000040152","Berlin, Seesener Str.",52.492673,13.296571,10711
"828","900000040153","Berlin, Grieser Platz",52.490887,13.293044,10711
"829","900000041101","U Fehrbelliner Platz (Berlin)",52.490201,13.314519,10717
"830","900000041102","U Blissestr. (Berlin)",52.486478,13.320545,10717
"831","900000041151","Berlin, Westfälische Str./Konstanzer Str.",52.491498,13.311024,10707
"832","900000041152","Berlin, Hoffmann-von-Fallersleben-Platz",52.488476,13.30799,10709
"833","900000041154","Berlin, Mansfelder Str./Barstr.",52.488376,13.314582,10719
"834","900000041201","U Konstanzer Str. (Berlin)",52.493567,13.310084,10629
"835","900000041251","Berlin, Eisenzahnstr.",52.493453,13.304898,10629
"836","900000041252","Berlin, Düsseldorfer Str.",52.496974,13.311629,10629
"837","900000041281","Berlin, Hochmeisterplatz",52.494651,13.301385,10711
"838","900000042101","U Spichernstr. (Berlin)",52.496582,13.330613,10719
"839","900000043101","U Hohenzollernplatz (Berlin)",52.493833,13.324051,10719
"840","900000043103","Berlin, Güntzelstr./Uhlandstr.",52.491542,13.323246,10719
"841","900000043151","Berlin, Fechnerstr.",52.489551,13.322877,10717
"842","900000043201","U Güntzelstr. (Berlin)",52.491992,13.33121,10789
"843","900000043252","Berlin, Landhausstr.",52.486845,13.328523,10825
"844","900000044101","S Hohenzollerndamm (Berlin)",52.488314,13.300712,10709
"845","900000044102","Berlin, Am Volkspark",52.483665,13.32036,10713
"846","900000044104","Berlin, Detmolder Str./Blissestr.",52.479118,13.320326,10713
"847","900000044151","Berlin, Brabanter Platz",52.481828,13.315889,10713
"848","900000044171","Berlin, Friedrichsruher Str.",52.487189,13.299192,10709
"849","900000044201","U Berliner Str. (Berlin)",52.487047,13.331355,10825
"850","900000044202","S+U Bundesplatz (Berlin)",52.477366,13.329149,10715
"851","900000044204","Berlin, Kufsteiner Str.",52.485819,13.336618,10825
"852","900000044205","Berlin, Birger-Forell-Platz",52.481805,13.320363,10713
"853","900000044206","Berlin, Durlacher Str.",52.481649,13.32944,10825
"854","900000044251","Berlin, Wexstr.",52.478673,13.332795,10825
"855","900000045101","U Rüdesheimer Platz (Berlin)",52.472462,13.314387,12161
"856","900000045102","S+U Heidelberger Platz (Berlin)",52.479446,13.311843,10713
"857","900000045103","Berlin, Wiesbadener Str./Laubacher Str.",52.471572,13.319217,12161
"858","900000045104","Berlin, Zoppoter Str.",52.47332,13.299372,14195
"859","900000045151","Berlin, Hanauer Str.",52.477016,13.320263,12161
"860","900000045152","Berlin, Deidesheimer Str.",52.474318,13.320374,12161
"861","900000045153","Berlin, Laubenheimer Str.",52.469609,13.315539,14197
"862","900000045154","Berlin, Görresstr.",52.47567,13.324874,12161
"863","900000045155","Berlin, Südwestkorso/Taunusstr.",52.473934,13.32257,12161
"864","900000045156","Berlin, Mecklenburgische Str./Binger Str.",52.478309,13.309013,10713
"865","900000045157","Berlin, Rudolf-Mosse-Platz",52.475394,13.303628,14197
"866","900000045158","Berlin, Kirchstr.",52.474154,13.294613,14195
"867","900000045159","Berlin, Sodener Str.",52.472713,13.304682,14197
"868","900000045160","Berlin, Binger Str.",52.472371,13.309572,10713
"869","900000046101","Berlin, Salzbrunner Str.",52.484238,13.293776,10709
"870","900000046151","Berlin, Forckenbeckstr.",52.481937,13.28969,10709
"871","900000046152","Berlin, Cunostr.",52.485373,13.295973,10709
"872","900000046203","Berlin, Elsterplatz",52.479647,13.285354,14199
"873","900000046251","Berlin, Rathaus Schmargendorf",52.477391,13.287849,14195
"874","900000046301","Berlin, Berkaer Str./Breite Str.",52.47533,13.290644,14195
"875","900000046351","Berlin, Platz am Wilden Eber",52.471233,13.289656,14195
"876","900000046352","Berlin, Sulzaer Str.",52.475973,13.285998,14195
"877","900000046353","Berlin, Bernadottestr.",52.467669,13.289331,14195
"878","900000047151","Berlin, Havelweg",52.49153,13.204074,14193
"879","900000047152","Berlin, Waldhaus",52.480409,13.197367,14193
"880","900000047153","Berlin, Grunewaldturm",52.478598,13.197848,14193
"881","900000047154","Berlin, Lindwerder",52.467188,13.196552,10117
"882","900000047155","Berlin, Havelchaussee",52.459789,13.190613,14129
"883","900000047156","Berlin, Große Steinlanke",52.454773,13.189801,14129
"884","900000048101","S Grunewald (Berlin)",52.48868,13.261944,14193
"885","900000048103","Berlin, Rathenauplatz",52.495921,13.287228,10711
"886","900000048104","Berlin, Herthastr.",52.48647,13.284405,10711
"887","900000048107","Berlin, Hagenplatz",52.483317,13.265912,14193
"888","900000048109","Berlin, Roseneck",52.476435,13.281537,14195
"889","900000048110","Berlin, Erdener Str.",52.490211,13.275916,10711
"890","900000048151","Berlin, Trabener Steg",52.497558,13.282931,10711
"891","900000048152","Berlin, Bismarckplatz",52.491937,13.284947,10711
"892","900000048153","Berlin, Lynarstr.",52.48955,13.284671,10711
"893","900000048154","Berlin, Elgersburger Str.",52.482889,13.285625,14199
"894","900000048155","Berlin, Hasensprung",52.486803,13.271871,14193
"895","900000048156","Berlin, Herbertstr.",52.491783,13.280128,14055
"896","900000048157","Berlin, Joseph-Joachim-Platz",52.482119,13.281172,14193
"897","900000048159","Berlin, Richard-Strauss-Str.",52.479949,13.271585,14193
"898","900000048160","Berlin, Hubertusbader Str.",52.478405,13.275603,14193
"899","900000048161","Berlin, Delbrückstr.",52.484178,13.282792,14193
"900","900000049101","Berlin, Neuruppiner Str.",52.421144,13.226659,14163
"901","900000049103","Berlin, Behring-Krankenhaus",52.423838,13.251681,14165
"902","900000049104","Berlin, Fürstenstr.",52.433757,13.24264,14163
"903","900000049105","Berlin, Mittelstr.",52.434738,13.249343,14169
"904","900000049150","Berlin, Fercher Str.",52.423333,13.233894,14165
"905","900000049151","Berlin, Wolzogenstr.",52.432284,13.235703,14163
"906","900000049154","Berlin, Ludwigsfelder Str.",52.424387,13.239715,14165
"907","900000049155","Berlin, Loebellstr.",52.426099,13.245247,14165
"908","900000049156","Berlin, Radtkestr.",52.426969,13.247992,14165
"909","900000049157","Berlin, Camphausenstr.",52.428134,13.251685,14167
"910","900000049201","S Zehlendorf (Berlin)",52.431209,13.259227,14167
"911","900000049202","S Sundgauer Str. (Berlin)",52.436187,13.273501,14167
"912","900000049203","Berlin, Bolchener Str.",52.433862,13.275742,14167
"913","900000049205","Berlin, Schönower Park",52.426928,13.26034,14167
"914","900000049206","Berlin, Jänickestr.",52.427228,13.271713,14167
"915","900000049207","Berlin, Stubenrauchstr.",52.430606,13.265988,14167
"916","900000049208","Berlin, Dahlemer Weg",52.432142,13.278633,14167
"917","900000049241","Berlin, Zehlendorf Eiche",52.435078,13.260455,14169
"918","900000049251","Berlin, Machnower Str./Berlepschstr.",52.429706,13.256891,14167
"919","900000049252","Berlin, Schrockstr.",52.427651,13.254906,14167
"920","900000049253","Berlin, Machnower Str.",52.430433,13.259484,14167
"921","900000049254","Berlin, Schweizerhofpark",52.424987,13.262005,14167
"922","900000049256","Berlin, Knesebeckstr.",52.428898,13.267689,14167
"923","900000049257","Berlin, Mürwiker Str.",52.426382,13.276849,14167
"924","900000049258","Berlin, Rathaus Zehlendorf",52.433476,13.25813,14167
"925","900000049301","Berlin, Beeskowdamm",52.409652,13.267298,14165
"926","900000049302","Berlin, Sachtlebenstr.",52.409179,13.251736,14165
"927","900000049303","Berlin, Am Birkenknick",52.415173,13.266148,14165
"928","900000049304","Berlin, Ludwigsfelder Str./Sachtlebenstr.",52.419327,13.249113,14165
"929","900000049305","Berlin, Leo-Baeck-Str.",52.422065,13.263773,14167
"930","900000049351","Berlin, Gutzmannstr.",52.420954,13.249968,14165
"931","900000049352","Berlin, Nieritzweg",52.415295,13.251307,14165
"932","900000049353","Berlin, Windsteiner Weg",52.411704,13.251779,14165
"933","900000049354","Berlin, Laehrstr.",52.419385,13.264785,14167
"934","900000049356","Berlin, Am Rehwechsel",52.412109,13.266928,14165
"935","900000049372","Berlin, Andréezeile",52.410338,13.266113,14165
"936","900000049374","Berlin, Alt-Schönow",52.407023,13.267737,14165
"937","900000050202","Berlin, Onkel-Tom-Str.",52.450025,13.251085,14169
"938","900000050203","Berlin, Scharfestr.",52.438276,13.262311,14169
"939","900000050206","Berlin, Altkanzlerstr.",52.446666,13.244857,14163
"940","900000050251","Berlin, Holländische Mühle",52.439999,13.276743,14167
"941","900000050253","Berlin, Kleinaustr.",52.43536,13.26436,14167
"942","900000050254","Berlin, Leichhardtstr.",52.445059,13.267579,14169
"943","900000050255","Berlin, Schützallee",52.442187,13.265453,14169
"944","900000050256","Berlin, Schützallee/Riemeisterstr.",52.441724,13.261689,14169
"945","900000050257","Berlin, Sophie-Charlotte-Str.",52.444504,13.260651,14169
"946","900000050258","Berlin, Am Fischtal",52.446505,13.258355,14169
"947","900000050259","Berlin, Im Gestell",52.448234,13.256345,14169
"948","900000050261","Berlin, Siebenendenweg",52.448328,13.247522,14169
"949","900000050281","Berlin, Winfriedstr.",52.437877,13.270197,14167
"950","900000050282","U Onkel Toms Hütte (Berlin)",52.450146,13.254016,14169
"951","900000050301","S Mexikoplatz (Berlin)",52.437166,13.23206,14129
"952","900000050302","Berlin, Potsdamer Chaussee/Lindenthaler Allee",52.431078,13.229832,14129
"953","900000050303","Berlin, Plüschowstr.",52.437314,13.25221,14169
"954","900000050304","Berlin, Sven-Hedin-Platz",52.440448,13.244725,14163
"955","900000050351","Berlin, Forststr.",52.440114,13.236304,14163
"956","900000050352","Berlin, Niklasstr.",52.433838,13.229762,14129
"957","900000050355","S Schlachtensee (Berlin)",52.439806,13.213986,14129
"958","900000050357","Berlin, Hartmannsweilerweg",52.438669,13.248925,14169
"959","900000050381","Berlin, Busseallee",52.435728,13.250063,14169
"960","900000050391","Berlin, Fischerhüttenstr.",52.435918,13.255847,14169
"961","900000051101","Berlin, Pücklerstr.",52.468578,13.278409,14195
"962","900000051151","Berlin, Messelstr.",52.473385,13.278549,14195
"963","900000051201","U Freie Universität (Thielplatz) (Berlin)",52.451,13.281651,14195
"964","900000051202","U Breitenbachplatz (Berlin)",52.467342,13.309276,14197
"965","900000051203","Berlin, Am Waldfriedhof",52.455024,13.266012,14169
"966","900000051204","Berlin, Königin-Luise-Str./Clayallee",52.460089,13.274764,14195
"967","900000051205","Berlin, Domäne Dahlem",52.458778,13.2871,14195
"968","900000051206","Berlin, Vogelsang",52.459468,13.279778,14195
"969","900000051251","Berlin, Löhleinstr.",52.453619,13.285478,14195
"970","900000051252","Berlin, Im Dol",52.465466,13.28859,14195
"971","900000051253","Berlin, Drosselweg",52.461209,13.287494,14195
"972","900000051254","Berlin, Bachstelzenweg",52.458632,13.284006,14195
"973","900000051255","Berlin, Alliiertenmuseum",52.456479,13.27366,14195
"974","900000051256","Berlin, Hüttenweg",52.453519,13.272236,14169
"975","900000051257","Berlin, Am Hegewinkel",52.453643,13.263266,14169
"976","900000051258","Berlin, Waltraudstr.",52.451485,13.263307,14169
"977","900000051259","Berlin, Finkenstr.",52.464735,13.277297,14195
"978","900000051281","Berlin, Dillenburger Str.",52.46869,13.30708,14197
"979","900000051301","U Oskar-Helene-Heim (Berlin)",52.450419,13.26891,14169
"980","900000051302","U Podbielskiallee (Berlin)",52.464172,13.295203,14195
"981","900000051303","U Dahlem-Dorf (Berlin)",52.457695,13.290011,14195
"982","900000051307","Berlin, Königin-Luise-Platz/Botanischer Garten",52.458596,13.30372,14195
"983","900000051309","Berlin, Von-Laue-Str.",52.443876,13.288827,14169
"984","900000051310","Berlin, Clayallee 229",52.448419,13.269353,14169
"985","900000051311","Berlin, Hittorfstr.",52.450827,13.287662,14195
"986","900000051312","Berlin, Limonenstr.",52.453931,13.29886,14195
"987","900000051313","Berlin, Altensteinstr./Fabeckstr.",52.451043,13.295847,14195
"988","900000051351","Berlin, Schorlemerallee",52.466012,13.306823,14195
"989","900000051352","Berlin, Rohlfsstr.",52.461563,13.30444,14195
"990","900000051353","Berlin, Arnimallee",52.457844,13.299357,14195
"991","900000051354","Berlin, Edwin-Redslob-Str.",52.457963,13.295065,14195
"992","900000051355","Berlin, Ehrenbergstr.",52.448313,13.290766,14195
"993","900000051358","Berlin, Bitscher Str.",52.450426,13.277383,14195
"994","900000051371","U Oskar-Helene-Heim (Bln) [Bus Clayallee]",52.450385,13.270409,14169
"995","900000052101","Berlin, Wannseebadweg",52.433386,13.188725,14129
"996","900000052151","Berlin, Wasserwerk Beelitzhof",52.430034,13.185062,14129
"997","900000052152","Berlin, Am Sandwerder",52.427266,13.186031,14129
"998","900000052153","Berlin, Tillmannsweg",52.423729,13.183761,14109
"999","900000052154","Berlin, Großes Fenster",52.451073,13.193114,14129
"1000","900000052155","Berlin, Kronprinzessinnenweg/Havelchaussee",52.443165,13.199283,14129
"1001","900000052156","Berlin, Badeweg",52.431997,13.186467,14129
"1002","900000052201","S Nikolassee (Berlin)",52.43121,13.193298,14129
"1003","900000052202","Berlin, Quantzstr.",52.423709,13.203606,14129
"1004","900000052203","Berlin, An der Rehwiese",52.434118,13.199831,14129
"1005","900000052204","Berlin, Prinz-Friedrich-Leopold-Str.",52.427831,13.195926,14129
"1006","900000052205","Berlin, Isoldestr.",52.419166,13.188915,14109
"1007","900000052251","Berlin, Nibelungenstr.",52.418716,13.180892,14109
"1008","900000052253","Berlin, Lückhoffstr.",52.434013,13.206681,14129
"1009","900000052271","Berlin, Waldhaus-Klinik",52.424583,13.205982,14129
"1010","900000052273","Berlin, Teutonenstr.",52.428583,13.193565,14129
"1011","900000052302","Berlin, Spanische Allee/Potsdamer Chaussee",52.429167,13.224309,14129
"1012","900000052303","Berlin, Schopenhauerstr.",52.433966,13.211238,14129
"1013","900000052304","Berlin, Clauertstr.",52.427422,13.229656,14129
"1014","900000052305","Berlin, Kurstr.",52.428107,13.218178,14129
"1015","900000052351","Berlin, Am Rohrgarten",52.426432,13.227203,14129
"1016","900000052352","Berlin, Wasgensteig",52.427414,13.214763,14129
"1017","900000052353","Berlin, Waldfriedhof Zehlendorf",52.426113,13.209346,14129
"1018","900000052355","Berlin, Krankenhaus Hubertus",52.432409,13.218444,14129
"1019","900000052356","Berlin, Lloyd-G.-Wells-Str.",52.423714,13.22579,14163
"1020","900000053101","Berlin, Glienicker Lake",52.41348,13.092686,14467
"1021","900000053102","Berlin, Pfaueninsel",52.428362,13.123459,14109
"1022","900000053151","Berlin, Friedenstr.",52.41725,13.138904,14109
"1023","900000053152","Berlin, Schäferberg",52.415526,13.125572,14109
"1024","900000053153","Berlin, Nikolskoer Weg",52.414081,13.109251,14482
"1025","900000053154","Berlin, Schuchardtweg",52.417942,13.144522,14109
"1026","900000053155","Berlin, Rübezahlweg",52.425587,13.132679,14109
"1027","900000053171","Berlin, Schloss Glienicke",52.413221,13.096472,14482
"1028","900000053202","Berlin, Am Kleinen Wannsee",52.420479,13.167181,14109
"1029","900000053204","Berlin, Rathaus Wannsee",52.418403,13.148899,14109
"1030","900000053205","Berlin, Wilhelmplatz",52.41275,13.142359,14109
"1031","900000053206","Berlin, Hahn-Meitner-Platz",52.411552,13.133319,14109
"1032","900000053250","Berlin, Straße zum Löwen",52.427419,13.15966,14109
"1033","900000053251","Berlin, Seglerweg",52.423863,13.161272,14109
"1034","900000053252","Berlin, Koblanckstr.",52.426645,13.161639,14109
"1035","900000053253","Berlin, Liebermann-Villa",52.428872,13.163609,14109
"1036","900000053254","Berlin, Am Großen Wannsee",52.431553,13.16515,14109
"1037","900000053255","Berlin, Haus der Wannsee-Konferenz",52.432827,13.163566,14109
"1038","900000053256","Berlin, Zum Heckeshorn",52.430158,13.160849,14109
"1039","900000053257","Berlin, Wernerstr.",52.419561,13.159983,14109
"1040","900000053258","Berlin, Pfaueninselchaussee/Königstr.",52.418991,13.153942,14109
"1041","900000053259","Berlin, Charlottenstr./Chausseestr.",52.415478,13.145619,14109
"1042","900000053260","Berlin, Conradstr.",52.420264,13.161618,14109
"1043","900000053271","Berlin, Am Birkenhügel",52.41167,13.136908,14109
"1044","900000053291","Berlin, Wannseebrücke",52.420038,13.17543,14109
"1045","900000053301","S Wannsee Bhf (Berlin)",52.421457,13.179099,14109
"1046","900000053303","Berlin, Steinstücken",52.389117,13.129909,14480
"1047","900000053304","Berlin, Kätchenweg",52.397631,13.14357,14109
"1048","900000053352","Berlin, Hubertusbrücke",52.405162,13.143588,14109
"1049","900000053353","Berlin, Neue Kreisstr.",52.399653,13.141727,14109
"1050","900000053354","Berlin, Königsweg",52.396474,13.140572,14109
"1051","900000053355","Berlin, Stölpchensee",52.409385,13.143697,14109
"1052","900000053371","Berlin, Stahnsdorfer Brücke",52.391554,13.131558,14109
"1053","900000054101","U Rathaus Schöneberg (Berlin)",52.483332,13.341989,10825
"1054","900000054102","U Kleistpark (Berlin)",52.490845,13.360917,10823
"1055","900000054103","U Eisenacher Str. (Berlin)",52.489477,13.350284,10823
"1056","900000054104","S Schöneberg (Berlin)",52.479811,13.352848,10825
"1057","900000054105","S+U Innsbrucker Platz (Berlin)",52.4781,13.342875,10825
"1058","900000054106","Berlin, Rathaus Schöneberg",52.485148,13.345077,10823
"1059","900000054107","Berlin, Dominicusstr./Hauptstr.",52.481794,13.348375,10825
"1060","900000054109","Berlin, Kaiser-Wilhelm-Platz",52.486942,13.35716,10823
"1061","900000054151","Berlin, Albertstr.",52.48451,13.352978,10823
"1062","900000054153","Berlin, Goebenstr.",52.49433,13.361054,10783
"1063","900000054173","Berlin, Hauptstr./Martin-Luther-Str.",52.479863,13.345946,10825
"1064","900000054192","Berlin, Grunewaldstr.",52.489085,13.345006,10823
"1065","900000055101","U Viktoria-Luise-Platz (Berlin)",52.496169,13.343264,10719
"1066","900000055102","U Bayerischer Platz (Berlin)",52.488654,13.340237,10825
"1067","900000055105","Berlin, Hohenstaufenstr.",52.494429,13.346156,10787
"1068","900000055106","Berlin, Eisenacher Str./Hohenstaufenstr.",52.494583,13.349179,10783
"1069","900000055107","Berlin, Münchener Str.",52.494289,13.342617,10787
"1070","900000055108","Berlin, Bamberger Str.",52.494717,13.336593,10719
"1071","900000055151","Berlin, Barbarossastr.",52.491861,13.345164,10787
"1072","900000055152","Berlin, Motzstr.",52.497482,13.346396,10785
"1073","900000056101","U Wittenbergplatz (Berlin)",52.502109,13.342561,10785
"1074","900000056102","U Nollendorfplatz (Berlin)",52.499644,13.353825,10785
"1075","900000056104","U Bülowstr. (Berlin)",52.497657,13.362452,10785
"1076","900000056105","Berlin, An der Urania",52.501072,13.3468,10785
"1077","900000056152","Berlin, Winterfeldtplatz",52.494607,13.355703,10785
"1078","900000057102","S+U Yorckstr. S1 U7 (Berlin)",52.492345,13.367986,10785
"1079","900000057106","Berlin, Torgauer Str.",52.479445,13.361257,10823
"1080","900000057107","Berlin, Dennewitzplatz",52.495906,13.366227,10783
"1081","900000057151","Berlin, Kesselsdorfstr.",52.485081,13.368202,10823
"1082","900000057153","Berlin, Gustav-Müller-Platz",52.48355,13.361442,10823
"1083","900000057154","Berlin, Leuthener Str.",52.481401,13.361508,10823
"1084","900000057155","Berlin, Katzbachstr.",52.491815,13.378026,10963
"1085","900000057171","Berlin, Mansteinstr.",52.493343,13.367134,10785
"1086","900000058101","S Südkreuz Bhf (Berlin)",52.475468,13.365579,10829
"1087","900000058102","S Priesterweg (Berlin)",52.459239,13.356028,12157
"1088","900000058103","S+U Yorckstr. S2 S25 S26 U7 (Berlin)",52.492323,13.372226,10963
"1089","900000058104","Berlin, Schöneberger Str.",52.469721,13.372067,12101
"1090","900000058105","Berlin, Lindenhof",52.459947,13.361626,12157
"1091","900000058106","Berlin, Röblingstr./Arnulfstr.",52.456575,13.359447,12157
"1092","900000058107","Berlin, Alboinplatz",52.461255,13.369803,12103
"1093","900000058151","Berlin, Alboinstr./Arnulfstr.",52.455745,13.369867,12105
"1094","900000058152","Berlin, Domnauer Str.",52.455861,13.364442,12103
"1095","900000058153","Berlin, Friedhof Röblingstr.",52.453493,13.360956,12157
"1096","900000058155","Berlin, Eresburgstr.",52.466803,13.370269,12101
"1097","900000058156","Berlin, Egelingzeile",52.463571,13.369978,12103
"1098","900000058157","Berlin, Kolonnenbrücke",52.485052,13.372971,10965
"1099","900000058171","Berlin, Bessemerstr.",52.459729,13.366504,12103
"1100","900000058172","Berlin, Suttnerstr.",52.4598,13.364225,12103
"1101","900000059101","Berlin, Sachsendamm/Gotenstr.",52.475618,13.359578,10829
"1102","900000059151","Berlin, Sportzentrum Schöneberg",52.477324,13.356525,10829
"1103","900000060101","S Friedenau (Berlin)",52.470002,13.340598,12161
"1104","900000060102","Berlin, Friedenauer Brücke",52.467393,13.336795,12161
"1105","900000060103","Berlin, Grazer Platz/Beckerstr.",52.466768,13.344428,12157
"1106","900000060104","Berlin, Insulaner",52.459082,13.348461,12169
"1107","900000060105","Berlin, Auguste-Viktoria-Klinikum Süd",52.460329,13.346306,12157
"1108","900000060106","Berlin, Grazer Platz",52.466939,13.347494,12157
"1109","900000060107","Berlin, Ceciliengärten",52.475024,13.343076,10715
"1110","900000060151","Berlin, Brüggemannstr.",52.463482,13.34808,12157
"1111","900000060152","Berlin, Altmarkstr.",52.458809,13.342435,12169
"1112","900000060153","Berlin, Rubensstr./S Friedenau",52.469785,13.343873,12157
"1113","900000060154","Berlin, Auguste-Viktoria-Klinikum",52.463206,13.344687,12157
"1114","900000060155","Berlin, Planetarium",52.457487,13.348839,12169
"1115","900000061101","U Walther-Schreiber-Platz (Berlin)",52.464998,13.328409,12157
"1116","900000061102","U Friedrich-Wilhelm-Platz (Berlin)",52.471439,13.328676,12161
"1117","900000061104","Berlin, Kaisereiche",52.468927,13.332339,12161
"1118","900000061105","Berlin, Breslauer Platz",52.472201,13.336028,12161
"1119","900000061153","Berlin, Hähnelstr.",52.475533,13.340206,10715
"1120","900000061154","Berlin, Schillerplatz",52.471554,13.324088,12161
"1121","900000062101","Berlin, Gritznerstr.",52.464323,13.316499,12163
"1122","900000062151","Berlin, Paulsenstr.",52.465258,13.314055,14197
"1123","900000062152","Berlin, Lepsiusstr.",52.463181,13.319746,12163
"1124","900000062202","S+U Rathaus Steglitz (Berlin)",52.455066,13.322152,12169
"1125","900000062203","U Schloßstr. (Berlin)",52.461183,13.324836,12169
"1126","900000062206","Berlin, Schmidt-Ott-Str.",52.459887,13.308878,14195
"1127","900000062251","Berlin, Grunewaldstr./Lepsiusstr.",52.458788,13.315613,12203
"1128","900000062252","Berlin, Kieler Str.",52.458729,13.322497,12169
"1129","900000062282","S+U Rathaus Steglitz/Kreisel (Berlin)",52.455889,13.320852,12169
"1130","900000063101","S Feuerbachstr. (Berlin)",52.463578,13.332412,12169
"1131","900000063103","Berlin, Knausplatz",52.464457,13.338943,12157
"1132","900000063104","Berlin, Bismarckstr./Bergstr.",52.45855,13.339175,12169
"1133","900000063151","Berlin, Lauenburger Platz",52.461793,13.339318,12169
"1134","900000063152","Berlin, Selerweg",52.454473,13.338875,12169
"1135","900000063154","Berlin, Cranachstr.",52.462728,13.343246,12157
"1136","900000063201","Berlin, Neue Filandastr.",52.452796,13.332234,12169
"1137","900000063202","Berlin, Birkbuschstr./Klingsorstr.",52.447523,13.326353,12203
"1138","900000063203","Berlin, Carmerplatz",52.452354,13.32032,12203
"1139","900000063252","Berlin, Haydnstr.",52.449512,13.32375,12203
"1140","900000063253","Berlin, Amfortasweg",52.445738,13.324475,12203
"1141","900000063254","Berlin, Vionvillestr.",52.445643,13.329694,12203
"1142","900000063291","Berlin, Breite Str.",52.45409,13.329036,12169
"1143","900000063292","Berlin, Heesestr.",52.45508,13.326507,12169
"1144","900000063301","Berlin, Steglitzer Damm/Bismarckstr.",52.45102,13.338211,12169
"1145","900000063302","Berlin, Kottesteig",52.454067,13.348543,12169
"1146","900000063351","Berlin, Stindestr.",52.448212,13.340186,12169
"1147","900000063401","Berlin, Steglitzer Damm/Halskestr.",52.450089,13.346612,12167
"1148","900000063402","Berlin, Siemensstr./Halskestr.",52.447104,13.342799,12167
"1149","900000063451","Berlin, Liebenowzeile",52.449627,13.350084,12169
"1150","900000063452","S Südende (Berlin)",52.448899,13.354077,12169
"1151","900000063453","Berlin, Hünefeldzeile",52.448648,13.357114,12169
"1152","900000064101","Berlin, Ostpreußendamm/Königsberger Str.",52.43078,13.317499,12207
"1153","900000064102","Berlin, Bogenstr.",52.425641,13.316581,12207
"1154","900000064103","Berlin, Boothstr.",52.436034,13.321861,12207
"1155","900000064104","Berlin, Herwarthstr.",52.432086,13.318082,12207
"1156","900000064151","Berlin, Promenadenstr.",52.434086,13.320023,12207
"1157","900000064152","Berlin, Giesensdorfer Str.",52.423976,13.314341,12207
"1158","900000064153","Berlin, Hochbergweg",52.426601,13.319903,12207
"1159","900000064201","S Lichterfelde Süd (Berlin)",52.409956,13.308662,12207
"1160","900000064202","Berlin, Lippstädter Str.",52.412772,13.302661,14167
"1161","900000064204","Berlin, Mercatorweg",52.411919,13.320434,12209
"1162","900000064205","Berlin, Celsiusstr. Nord",52.416211,13.315932,12207
"1163","900000064206","Berlin, Ostpreußendamm/Osdorfer Str.",52.420676,13.309532,12207
"1164","900000064207","Berlin, Ostpreußendamm Süd",52.41436,13.302135,14167
"1165","900000064251","Berlin, Woltmannweg",52.413974,13.318261,12207
"1166","900000064253","Berlin, Schwelmer Str.",52.412156,13.299057,14167
"1167","900000064256","S Osdorfer Str. (Berlin)",52.418373,13.313865,12207
"1168","900000064257","Berlin, Feldstr.",52.415692,13.303541,14167
"1169","900000064258","Berlin, Ahlener Weg",52.410517,13.305064,14167
"1170","900000064271","Berlin, Lindenstr.",52.417713,13.306085,14167
"1171","900000064272","Berlin, Landweg",52.410433,13.323064,12209
"1172","900000064273","Berlin, Celsiusstr. Süd",52.410974,13.31413,12207
"1173","900000064301","S Lichterfelde Ost Bhf (Berlin)",52.429098,13.328078,12207
"1174","900000064302","Berlin, Sondershauser Str.",52.415948,13.34172,12209
"1175","900000064303","Berlin, Oberhofer Platz",52.42462,13.328267,12207
"1176","900000064306","Berlin, Amalienstr.",52.429972,13.333442,12207
"1177","900000064307","Berlin, Saaleckplatz",52.416215,13.324457,12209
"1178","900000064308","Berlin, Schütte-Lanz-Str./Lichterfelder Ring",52.410953,13.329605,12209
"1179","900000064309","Berlin, Lange Str.",52.424008,13.333174,12207
"1180","900000064351","Berlin, Marienstr.",52.429273,13.322114,12207
"1181","900000064352","Berlin, Jungfernstieg",52.428044,13.325047,12207
"1182","900000064353","Berlin, Grabenstr.",52.421261,13.32649,12249
"1183","900000064354","Berlin, Heinersdorfer Str./Hildburghauser Str.",52.418575,13.324719,12209
"1184","900000064355","Berlin, Lilienthalpark",52.41427,13.326339,12209
"1185","900000064356","Berlin, Jägerstr.",52.426535,13.331427,12207
"1186","900000064357","Berlin, Geraer Str.",52.420986,13.334949,12209
"1187","900000064358","Berlin, Georgenstr.",52.41871,13.336688,12209
"1188","900000064359","Berlin, Stanzer Zeile",52.416644,13.338184,12209
"1189","900000064360","Berlin, Stadtilmer Weg",52.414977,13.346526,12209
"1190","900000064361","Berlin, Kranoldplatz",52.427109,13.326725,12207
"1191","900000065103","Berlin, Wupperstr.",52.409551,13.272483,14165
"1192","900000065151","Berlin, Alsterweg",52.412895,13.276621,14167
"1193","900000065152","Berlin, Persantestr.",52.414917,13.279957,14167
"1194","900000066101","S Lichterfelde West (Berlin)",52.443512,13.294141,12205
"1195","900000066102","S Botanischer Garten (Berlin)",52.447552,13.306041,14195
"1196","900000066103","Berlin, Unter den Eichen/Drakestr.",52.445875,13.293386,14195
"1197","900000066104","Berlin, Thielallee/Dahlemer Weg",52.441676,13.282027,14167
"1198","900000066105","Berlin, Unter den Eichen/Botanischer Garten",52.451666,13.310252,12203
"1199","900000066106","Berlin, Fabeckstr.",52.448066,13.300172,14195
"1200","900000066151","Berlin, Asternplatz",52.449445,13.30392,14195
"1201","900000066152","Berlin, Schlossparktheater",52.454078,13.318886,12169
"1202","900000066153","Berlin, Lipaer Str.",52.448118,13.310897,12203
"1203","900000066154","Berlin, Tietzenweg",52.444721,13.301986,14195
"1204","900000066181","Berlin, Braillestr.",52.453429,13.315777,12203
"1205","900000066201","Berlin, Carstennstr./Ringstr.",52.432715,13.287075,14167
"1206","900000066202","Berlin, Luzerner Str.",52.424042,13.292894,14167
"1207","900000066203","Berlin, Pinnauweg",52.421087,13.281136,14167
"1208","900000066204","Berlin, Darser Str.",52.416918,13.283499,14167
"1209","900000066205","Berlin, Hochbaumstr.",52.4299,13.288904,14167
"1210","900000066251","Berlin, Billy-Wilder-Promenade",52.417796,13.287081,14167
"1211","900000066252","Berlin, Lichterfelder Weg",52.419949,13.294861,14167
"1212","900000066253","Berlin, Platz des 4. Juli",52.422383,13.286774,14167
"1213","900000066254","Berlin, Thuner Platz",52.423699,13.296236,14167
"1214","900000066255","Berlin, Züricher Str.",52.427103,13.290763,12205
"1215","900000066256","Berlin, Köhlerstr.",52.435288,13.289268,14167
"1216","900000066257","Berlin, Johanneskirchplatz",52.436784,13.293076,14167
"1217","900000066301","Berlin, Appenzeller Str.",52.421913,13.298506,14167
"1218","900000066302","Berlin, Bundesarchiv",52.432422,13.299874,12205
"1219","900000066303","Berlin, Holbeinstr.",52.437723,13.302471,12205
"1220","900000066351","Berlin, Prettauer Pfad",52.420425,13.301431,14167
"1221","900000066353","Berlin, Engadiner Weg",52.425424,13.302843,12207
"1222","900000066354","Berlin, Bremer Str.",52.428912,13.306857,12207
"1223","900000066355","Berlin, Berner Str.",52.432724,13.29281,14167
"1224","900000066401","Berlin, Goerzallee/Drakestr.",52.43137,13.309679,12207
"1225","900000066402","Berlin, Karwendelstr.",52.433038,13.306788,12207
"1226","900000066404","Berlin, Händelplatz",52.449919,13.315422,12203
"1227","900000066405","Berlin, Hindenburgdamm/Klingsorstr.",52.443418,13.315758,12203
"1228","900000066407","Berlin, Drakestr./Ringstr.",52.440215,13.299794,12205
"1229","900000066408","Berlin, Bäkestr.",52.435392,13.313328,12207
"1230","900000066409","Berlin, Klingsorplatz/Klinikum",52.443935,13.320936,12203
"1231","900000066410","Berlin, Charité - Campus Benjamin Franklin",52.441023,13.316084,12203
"1232","900000066451","Berlin, Baseler Str.",52.437756,13.295398,12205
"1233","900000066454","Berlin, Krahmerstr./Stockweg",52.438492,13.315773,12203
"1234","900000066455","Berlin, Manteuffelstr.",52.446757,13.315313,12203
"1235","900000067101","Berlin, Leonorenstr./Siemensstr.",52.444253,13.338992,12167
"1236","900000067103","Berlin, Mozartstr.",52.442487,13.332202,12203
"1237","900000067151","Berlin, Gärtnerstr.",52.43992,13.327139,12207
"1238","900000067152","Berlin, Stadion Lichterfelde",52.438702,13.325132,12207
"1239","900000067171","Berlin, Teltowkanalstr.",52.443529,13.331454,12203
"1240","900000067201","Berlin, Lankwitz Kirche",52.436259,13.345749,12249
"1241","900000067202","Berlin, Edenkobener Weg",52.439873,13.351153,12247
"1242","900000067203","Berlin, Wunsiedeler Weg",52.437488,13.357683,12247
"1243","900000067204","Berlin, Malteserstr./Kamenzer Damm",52.433261,13.353259,12249
"1244","900000067205","Berlin, Kaiser-Wilhelm-Str./Seydlitzstr.",52.432196,13.338685,12207
"1245","900000067221","S Lankwitz (Berlin)",52.439034,13.34276,12249
"1246","900000067251","Berlin, Stadtbad Lankwitz",52.441441,13.342068,12167
"1247","900000067252","Berlin, Kameradenweg",52.434052,13.346196,12249
"1248","900000067253","Berlin, Havensteinstr.",52.431929,13.346323,12249
"1249","900000067254","Berlin, Eiswaldtstr.",52.428578,13.347044,12249
"1250","900000067255","Berlin, Paul-Schneider-Str.",52.43425,13.350069,12249
"1251","900000067256","Berlin, Langkofelweg",52.438711,13.353721,12247
"1252","900000067257","Berlin, Dillgesstr.",52.434258,13.342247,12207
"1253","900000067258","Berlin, Bruchwitzstr.",52.437892,13.348343,12249
"1254","900000067301","Berlin, Brotteroder Str.",52.420223,13.35064,12249
"1255","900000067302","Berlin, St. Marien-Krankenhaus",52.424309,13.34784,12249
"1256","900000067351","Berlin, Blankenhainer Str.",52.422064,13.349197,12249
"1257","900000067352","Berlin, Maximilian-Kaller-Str.",52.416584,13.35294,12279
"1258","900000067401","Berlin, Am Gemeindepark",52.42922,13.355341,12249
"1259","900000067402","Berlin, Preysingstr.",52.427631,13.364569,12249
"1260","900000067451","Berlin, Emmichstr.",52.427657,13.355234,12249
"1261","900000067453","Berlin, Marchandstr.",52.423193,13.357391,12249
"1262","900000067454","Berlin, Friedrichrodaer Str.",52.420444,13.358791,12249
"1263","900000067455","Berlin, Vom Guten Hirten",52.41572,13.361659,12279
"1264","900000067456","Berlin, Wedellstr.",52.429362,13.358565,12249
"1265","900000067457","Berlin, Wichurastr.",52.428364,13.362519,12249
"1266","900000067458","Berlin, Sonnenscheinpfad",52.426658,13.367891,12277
"1267","900000068101","U Paradestr. (Berlin)",52.478142,13.386725,12101
"1268","900000068102","Berlin, Dudenstr./Katzbachstr.",52.484936,13.376781,10965
"1269","900000068103","Berlin, Boelckestr./Hoeppnerstr.",52.472449,13.377906,12101
"1270","900000068104","Berlin, Rumeyplan",52.475598,13.377549,12101
"1271","900000068105","Berlin, Hoeppnerstr.",52.472722,13.37375,12101
"1272","900000068106","Berlin, Bäumerplan",52.476035,13.375575,12101
"1273","900000068151","Berlin, Gontermannstr.",52.474529,13.371348,10829
"1274","900000068152","Berlin, Wüsthoffstr.",52.478798,13.376736,12101
"1275","900000068153","Berlin, Badener Ring",52.482106,13.377443,12101
"1276","900000068154","Berlin, Monumentenstr.",52.487694,13.376867,10965
"1277","900000068156","Berlin, Bayernring",52.482565,13.38124,12101
"1278","900000068157","Berlin, Schreiberring",52.480907,13.379363,12101
"1279","900000068158","Berlin, Adolf-Scheidt-Platz",52.478195,13.378366,12101
"1280","900000068201","S+U Tempelhof (Berlin)",52.470694,13.385754,12099
"1281","900000068202","U Alt-Tempelhof (Berlin)",52.46593,13.385796,12099
"1282","900000068203","Berlin, Berlinickeplatz",52.466326,13.378098,12101
"1283","900000068204","Berlin, Albrechtstr./Manteuffelstr.",52.461067,13.376712,12099
"1284","900000068205","Berlin, Oberlandstr./Germaniastr.",52.463688,13.400675,12099
"1285","900000068251","Berlin, Felixstr.",52.465512,13.394597,12099
"1286","900000068252","Berlin, Oberlandstr./BAB",52.463516,13.40454,12099
"1287","900000068253","Berlin, Ringbahnstr.",52.468277,13.377997,12101
"1288","900000068272","U Tempelhof/Ringbahnstr. (Berlin)",52.468806,13.385842,12099
"1289","900000068301","S Attilastr. (Berlin)",52.447298,13.361177,12247
"1290","900000068302","U Kaiserin-Augusta-Str. (Berlin)",52.460512,13.384905,12105
"1291","900000068304","Berlin, Röblingstr./Attilastr.",52.44965,13.366839,12105
"1292","900000068341","Berlin, Attilaplatz",52.455846,13.375858,12105
"1293","900000068342","Berlin, Tankredstr.",52.454952,13.374697,12105
"1294","900000068343","Berlin, Wittekindstr.",52.455509,13.373891,12105
"1295","900000068351","Berlin, Ringstr./Kurfürstenstr.",52.445497,13.368505,12247
"1296","900000068352","Berlin, Gersdorfstr./Kurfürstenstr.",52.447218,13.37125,12105
"1297","900000068353","Berlin, Friedrich-Wilhelm-Str.",52.458431,13.37613,12105
"1298","900000068354","Berlin, Rathaus Tempelhof",52.462844,13.385317,12099
"1299","900000068355","Berlin, Chlodwigstr.",52.45281,13.371835,12105
"1300","900000068357","Berlin, Mergentheimer Str.",52.444748,13.355465,12169
"1301","900000069101","Berlin, Columbiadamm/Friesenstr.",52.484118,13.394479,12101
"1302","900000069151","Berlin, Golßener Str.",52.483745,13.40012,10965
"1303","900000069201","Berlin, Tempelhofer Damm/Ordensmeisterstr.",52.456203,13.383784,12105
"1304","900000069202","Berlin, Oberlandstr. Mitte",52.464082,13.409899,12099
"1305","900000069203","Berlin, Komturstr.",52.459245,13.400976,12099
"1306","900000069204","Berlin, Bergholzstr.",52.460069,13.417039,12099
"1307","900000069205","Berlin, Industriestr.",52.455319,13.409928,12099
"1308","900000069206","Berlin, Rohdestr.",52.460041,13.407328,12099
"1309","900000069207","Berlin, Colditzstr./Ullsteinstr.",52.453105,13.3965,12099
"1310","900000069208","Berlin, Eschersheimer Str.",52.465192,13.421471,12347
"1311","900000069211","Berlin, Tempelhofer Damm/U Ullsteinstr.",52.455876,13.384848,12105
"1312","900000069251","Berlin, Colditzstr.",52.457831,13.392795,12099
"1313","900000069252","Berlin, Wenckebachstr.",52.456701,13.388007,12105
"1314","900000069253","Berlin, Oberlandgarten",52.46462,13.415228,12099
"1315","900000069254","Berlin, Bambachstr.",52.465794,13.426729,12347
"1316","900000069257","Berlin, Saalburgstr.",52.457796,13.4132,12099
"1317","900000069258","Berlin, Rixdorfer Str./Ullsteinstr.",52.452511,13.407941,12099
"1318","900000069260","Berlin, Volkmarstr./Ullsteinstr.",52.452992,13.393142,12105
"1319","900000069262","Berlin, Volkmarstr.",52.454654,13.39549,12099
"1320","900000069271","U Ullsteinstr. (Berlin)",52.45345,13.384771,12105
"1321","900000070101","U Westphalweg (Berlin)",52.445801,13.385561,12105
"1322","900000070102","Berlin, Imbrosweg",52.443491,13.398637,12109
"1323","900000070103","Berlin, Skutaristr.",52.446775,13.402065,12109
"1324","900000070104","Berlin, Friedhof Mariendorf",52.449652,13.40501,12109
"1325","900000070151","Berlin, Mariendorfer Damm/Eisenacher Str.",52.448051,13.385308,12105
"1326","900000070152","Berlin, Kollostr.",52.447638,13.391429,12105
"1327","900000070153","Berlin, Kosleckweg",52.447299,13.395757,12109
"1328","900000070154","Berlin, Didostr.",52.447087,13.398545,12109
"1329","900000070155","Berlin, Goldenes Horn Mitte",52.442145,13.404463,12109
"1330","900000070156","Berlin, Am Hellespont",52.444675,13.407146,12109
"1331","900000070158","Berlin, Gradestr. 91",52.452285,13.423071,12347
"1332","900000070159","Berlin, Gradestr. 71",52.452334,13.428692,12347
"1333","900000070181","Berlin, Dirschelweg",52.444929,13.400153,12109
"1334","900000070201","Berlin, Gersdorfstr./Kaiserstr.",52.445037,13.374065,12105
"1335","900000070202","Berlin, Dardanellenweg",52.444847,13.41077,12347
"1336","900000070251","Berlin, Rathausstr./Kaiserstr.",52.44527,13.379499,12105
"1337","900000070252","Berlin, Prühßstr.",52.442374,13.378144,12107
"1338","900000070254","Berlin, Imbrosweg Ost",52.442121,13.409521,12347
"1339","900000070301","U Alt-Mariendorf (Berlin)",52.439641,13.387456,12109
"1340","900000070302","Berlin, Rotkopfweg",52.439102,13.409454,12347
"1341","900000070303","Berlin, Rixdorfer Str./Britzer Str.",52.440282,13.395594,12109
"1342","900000070304","Berlin, Friedenstr./Großbeerenstr.",52.43781,13.38034,12107
"1343","900000070305","Berlin, Hundsteinweg",52.434361,13.390099,12107
"1344","900000070353","Berlin, Am Heidefriedhof",52.440242,13.392152,12109
"1345","900000070355","Berlin, Goldenes Horn Süd",52.439554,13.403968,12109
"1346","900000070381","Berlin, Ringstr./Rathausstr.",52.441039,13.380911,12109
"1347","900000070401","Berlin, Tauernallee/Säntisstr.",52.423395,13.396325,12349
"1348","900000070402","Berlin, Trabrennbahn",52.431527,13.391877,12107
"1349","900000070403","Berlin, Sangerhauser Weg",52.427402,13.406331,12349
"1350","900000070404","Berlin, Richard-Tauber-Damm/Säntisstr.",52.419993,13.390602,12277
"1351","900000070405","Berlin, Ankogelweg",52.419525,13.398334,12349
"1352","900000070451","Berlin, Pilatusweg",52.429333,13.392793,12107
"1353","900000070452","Berlin, Glärnischweg",52.426392,13.394449,NA
"1354","900000070453","Berlin, Sandsteinweg",52.416982,13.399767,NA
"1355","900000070454","Berlin, Watzmannweg",52.42553,13.400435,NA
"1356","900000070455","Berlin, Grünsteinweg",52.426362,13.409106,NA
"1357","900000070456","Berlin, Tropfsteinweg",52.423582,13.414648,NA
"1358","900000070457","Berlin, Asbestweg",52.421328,13.415179,NA
"1359","900000071101","Berlin, Körtingstr.",52.434823,13.378291,NA
"1360","900000071102","Berlin, Haynauer Str.",52.435168,13.365582,NA
"1361","900000071104","Berlin, Wilhelm-von-Siemens-Str.",52.4292,13.375674,NA
"1362","900000071151","Berlin, Döhlauer Pfad",52.436578,13.362567,NA
"1363","900000071153","Berlin, Greinerstr.",52.436684,13.372099,NA
"1364","900000071154","Berlin, Porschestr.",52.437249,13.376013,NA
"1365","900000071171","Berlin, Halbauer Weg",52.43459,13.36199,NA
"1366","900000072101","S Buckower Chaussee (Berlin)",52.410919,13.382689,NA
"1367","900000072102","Berlin, Nahmitzer Damm/Motzener Str.",52.40917,13.376226,NA
